{
  "version": 0.6,
  "generator": "Overpass API 0.7.55 579b1eec",
  "osm3s": {
    "timestamp_osm_base": "2018-05-12T14:36:02Z",
    "copyright": "The data included in this document is from www.openstreetmap.org. The data is made available under ODbL."
  },
  "elements": [

{
  "type": "node",
  "id": 364694509,
  "lat": 47.2172918,
  "lon": -1.5524959,
  "tags": {
    "addr:city": "Nantes",
    "addr:housenumber": "5",
    "addr:postcode": "44000",
    "addr:street": "Rue de Strasbourg",
    "amenity": "restaurant",
    "contact:city": "Nantes",
    "contact:country": "FR",
    "contact:housenumber": "21",
    "contact:postcode": "44000",
    "contact:street": "Rue de Strasbourg",
    "cuisine": "french",
    "name": "La Cuillère en Coin",
    "source": "cadastre-dgi-fr source : Direction Générale des Impôts - Cadastre;mise à jour : 2009"
  }
},
{
  "type": "node",
  "id": 371490531,
  "lat": 45.6359182,
  "lon": 0.2094427,
  "tags": {
    "addr:city": "Soyaux",
    "addr:housenumber": "278",
    "addr:postcode": "16800",
    "addr:street": "Avenue du Général de Gaulle",
    "bulk_purchase": "yes",
    "name": "Biocoop l'Epicea",
    "organic": "only",
    "shop": "supermarket",
    "website": "http://biocoop.fr/magasins-bio/Trouver-mon-magasin-Biocoop/Nouvelle-Aquitaine2/Charente/L-EPICEA"
  }
},
{
  "type": "node",
  "id": 380988859,
  "lat": 43.5875001,
  "lon": 1.5148724,
  "tags": {
    "addr:city": "Quint-Fonsegrives",
    "addr:housenumber": "12",
    "addr:postcode": "31130",
    "addr:street": "Chemin de Ribaute",
    "bulk_purchase": "yes",
    "name": "Biocoop",
    "organic": "only",
    "shop": "supermarket",
    "website": "http://www.biocoop-quint.fr/"
  }
},
{
  "type": "node",
  "id": 390154975,
  "lat": 46.9015581,
  "lon": 6.3485045,
  "tags": {
    "addr:city": "Pontarlier",
    "addr:postcode": "25300",
    "addr:street": "Rue Arthur Bourdin",
    "bulk_purchase": "yes",
    "name": "Biocoop des Hauts Doubs",
    "organic": "only",
    "shop": "supermarket",
    "website": "http://pontarlier.biocoop.net/"
  }
},
{
  "type": "node",
  "id": 471542431,
  "lat": 43.5732202,
  "lon": 1.4526089,
  "tags": {
    "addr:city": "Toulouse",
    "addr:housenumber": "21",
    "addr:postcode": "31400",
    "addr:street": "Avenue des Écoles Jules Julien",
    "bulk_purchase": "yes",
    "contact:phone": "+33 5 61539563",
    "currency:XLT": "COPK;SVLT",
    "fax": "+33 5 61328944",
    "name": "Biocoop Grandeur Nature",
    "network": "Biocoop",
    "opening_hours": "Mo-Sa 09:15-19:00",
    "organic": "only",
    "payment:cash:XLT-COPK": "yes",
    "payment:cash:XLT-SVLT": "yes",
    "shop": "convenience",
    "website": "http://www.grandeurnature31.fr"
  }
},
{
  "type": "node",
  "id": 475385271,
  "lat": 47.2147524,
  "lon": -1.5548521,
  "tags": {
    "addr:city": "Nantes",
    "addr:housenumber": "9",
    "addr:postcode": "44000",
    "addr:street": "Rue de la Bléterie",
    "amenity": "restaurant",
    "contact:city": "Nantes",
    "contact:country": "FR",
    "contact:housenumber": "9",
    "contact:postcode": "44000",
    "contact:street": "Rue de la Bléterie",
    "contact:website": "http://www.chacharestaurant.fr/",
    "cuisine": "french",
    "name": "Chacha",
    "organic": "yes",
    "takeaway": "yes"
  }
},
{
  "type": "node",
  "id": 476294585,
  "lat": 47.2148495,
  "lon": -1.5552388,
  "tags": {
    "addr:city": "Nantes",
    "addr:housenumber": "13",
    "addr:postcode": "44000",
    "addr:street": "Rue Beauregard",
    "amenity": "restaurant",
    "contact:city": "Nantes",
    "contact:country": "FR",
    "contact:housenumber": "13",
    "contact:postcode": "44000",
    "contact:street": "Rue Beauregard",
    "cuisine": "french",
    "facebook": "http://www.facebook.com/Jargus/",
    "name": "Jargus",
    "opening_hours": "Mo-We 12:00-20:00, Th-Sa 12:00-22:00",
    "website": "http://jargus.fr/"
  }
},
{
  "type": "node",
  "id": 556430190,
  "lat": 50.9120064,
  "lon": 6.9185920,
  "tags": {
    "addr:city": "Köln",
    "addr:country": "DE",
    "addr:housenumber": "406",
    "addr:postcode": "50937",
    "addr:street": "Berrenrather Straße",
    "bulk_purchase": "yes",
    "description": "Kölns erster \"Unverpackt Laden\"",
    "email": "hallo@tante-olga.de",
    "fax": "+49 221 9460077",
    "name": "Tante Olga",
    "note": "ehemals Bäckerei Heilinger",
    "opening_hours": "Mo,Sa 10:00-15:00; Tu-Fr 11:00-19:00; Su,PH off",
    "organic": "yes",
    "phone": "+49 221 94600076",
    "shop": "convenience",
    "start_date": "2016-11-05",
    "website": "http://www.tante-olga.de/",
    "wheelchair": "no"
  }
},
{
  "type": "node",
  "id": 627893217,
  "lat": 43.9622366,
  "lon": 3.8564786,
  "tags": {
    "addr:city": "Saint-Hippolyte-du-Fort",
    "addr:housenumber": "16",
    "addr:postcode": "30170",
    "addr:street": "Boulevard des Remparts",
    "brand:wikidata": "Q2904039",
    "bulk_purchase": "yes",
    "name": "Biocoop",
    "operator": "La Fourmi et la Cigale",
    "organic": "only",
    "phone": "+33 4 66 77 99 10",
    "shop": "supermarket",
    "source": "cadastre-dgi-fr source : Direction Générale des Impôts - Cadastre. Mise à jour : 2010",
    "website": "https://biocoop-fourmicigale.fr/",
    "wikipedia": "fr:Biocoop"
  }
},
{
  "type": "node",
  "id": 663594963,
  "lat": 45.0538412,
  "lon": 5.0829606,
  "tags": {
    "addr:city": "Romans-sur-Isère",
    "addr:housenumber": "6",
    "addr:postcode": "26100",
    "addr:street": "Rue Nicolas Appert",
    "bulk_purchase": "yes",
    "name": "Biocoop",
    "opening_hours": "Mo-Sa 09:00-12:30,14:00-19:00",
    "organic": "only",
    "phone": "+33 4 75 02 99 32",
    "shop": "supermarket",
    "website": "http://www.biocoopromans.com/"
  }
},
{
  "type": "node",
  "id": 721612299,
  "lat": 45.6319590,
  "lon": -0.9874591,
  "tags": {
    "addr:city": "Royan",
    "addr:housenumber": "24",
    "addr:postcode": "17200",
    "addr:street": "Rue Lavoisier",
    "bulk_purchase": "yes",
    "name": "Biocoop Royan",
    "organic": "only",
    "shop": "supermarket",
    "source": "cadastre-dgi-fr source : Direction Générale des Impôts - Cadastre. Mise à jour : 2010",
    "website": "http://www.biocoop-royan.com"
  }
},
{
  "type": "node",
  "id": 1034073369,
  "lat": 47.2102484,
  "lon": -1.7282223,
  "tags": {
    "addr:city": "Couëron",
    "addr:housenumber": "8",
    "addr:postcode": "44220",
    "addr:street": "Rue Alcide Charles d’ Orbigny",
    "bulk_purchase": "only",
    "contact:email": "contact@epicerie-leptitpoids.fr",
    "name": "Le P'tit Poids",
    "opening_hours": "Tu-Th 09:00-12:30, 14:30-19:00; Fr 09:00-12:30, 15:30-19:00; Sa 09:30-12:30, 15:00-19:00",
    "organic": "yes",
    "shop": "convenience",
    "website": "http://epicerie-leptitpoids.fr/"
  }
},
{
  "type": "node",
  "id": 1070094138,
  "lat": 44.5492144,
  "lon": 6.0654489,
  "tags": {
    "addr:city": "Gap",
    "addr:housenumber": "3",
    "addr:postcode": "05000",
    "addr:street": "Rue Alphonse Daudet",
    "bulk_purchase": "yes",
    "name": "Le Grenier Bicoop",
    "operator": "Biocoop",
    "organic": "only",
    "shop": "supermarket",
    "website": "http://www.legrenier-bio.fr"
  }
},
{
  "type": "node",
  "id": 1179939500,
  "lat": 48.5861734,
  "lon": 7.7433796,
  "tags": {
    "bulk_purchase": "yes",
    "contact:city": "Strasbourg",
    "contact:housenumber": "6",
    "contact:phone": "+33 3 88 36 52 68",
    "contact:postcode": "67000",
    "contact:street": "Rue de Sébastopol",
    "currency:XLT": "STUK",
    "name": "Le Quai des Halles",
    "operator": "Biocoop",
    "organic": "only",
    "payment:cash:XLT-STUK": "yes",
    "ref:FR:SIRET": "79000938500010",
    "shop": "supermarket"
  }
},
{
  "type": "node",
  "id": 1284221992,
  "lat": 43.6062416,
  "lon": 1.4500441,
  "tags": {
    "addr:city": "Toulouse",
    "addr:housenumber": "32",
    "addr:postcode": "31000",
    "addr:street": "Allées Jean Jaurès",
    "bulk_purchase": "yes",
    "contact:phone": "+33 5 62 57 90 25",
    "currency:XLT": "SVLT",
    "name": "Biocoop Jaurès",
    "network": "Biocoop",
    "opening_hours": "Tu-Sa 10:00-20:00; Mo 11:00-20:00",
    "operator": "Biocoop",
    "organic": "only",
    "payment:cash:XLT-SVLT": "yes",
    "shop": "supermarket",
    "website": "http://www.biocoopjaures-toulouse.com/",
    "wheelchair": "yes"
  }
},
{
  "type": "node",
  "id": 1320147774,
  "lat": 47.5033743,
  "lon": -0.5847335,
  "tags": {
    "addr:city": "Avrillé",
    "addr:housenumber": "30 Ter",
    "addr:postcode": "49240",
    "addr:street": "Avenue Pierre Mendès France",
    "bulk_purchase": "yes",
    "name": "Biocoop CABA",
    "organic": "only",
    "shop": "convenience",
    "source": "cadastre-dgi-fr source : Direction Générale des Impôts - Cadastre. Mise à jour : 2011",
    "website": "http://biocoop-caba.fr/"
  }
},
{
  "type": "node",
  "id": 1385779909,
  "lat": 43.2103922,
  "lon": 2.3103900,
  "tags": {
    "addr:city": "Carcassone",
    "addr:housenumber": "8",
    "addr:postcode": "11000",
    "addr:street": "Rue Chaptal  Carcassonne",
    "bulk_purchase": "yes",
    "name": "Biocoop Tourne-Sol",
    "operator": "Biocoop",
    "shop": "convenience",
    "website": "http://www.tourne-sol-biocoop.fr"
  }
},
{
  "type": "node",
  "id": 1424656423,
  "lat": 47.2425169,
  "lon": 6.0137680,
  "tags": {
    "addr:city": "Besançon",
    "addr:housenumber": "1",
    "addr:postcode": "25000",
    "addr:street": "Avenue du 60e Régiment d’Infanterie",
    "bulk_purchase": "yes",
    "contact:phone": "+33 3 81 82 00 72",
    "currency:XLT": "PIVE",
    "name": "Biocoop Vesonbio",
    "network": "Biocoop",
    "opening_hours": "Mo 14:30-19:30; Tu-Fr 09:30-19:30; Sa 09:00-19:00",
    "operator": "Biocoop",
    "organic": "only",
    "payment:cash:XLT-PIVE": "yes",
    "shop": "supermarket",
    "website": "http://vesonbio.biocoop.net/"
  }
},
{
  "type": "node",
  "id": 1449636608,
  "lat": 48.4529987,
  "lon": -2.0205511,
  "tags": {
    "addr:city": "Lanvallay",
    "addr:postcode": "22100",
    "addr:street": "Rue Charles de Gaulle",
    "brand:wikidata": "Q2904039",
    "brand:wikipedia": "fr:Biocoop",
    "bulk_purchase": "yes",
    "email": "biocoop.lanvallay-dinan@orange.fr",
    "name": "Biocoop Elément-Terre",
    "network": "Biocoop",
    "organic": "only",
    "phone": "+33 2 96392579",
    "shop": "supermarket",
    "source": "survey",
    "website": "http://www.biocoop-dinan.fr/",
    "wheelchair": "yes"
  }
},
{
  "type": "node",
  "id": 1505749868,
  "lat": 47.1410058,
  "lon": 7.2462051,
  "tags": {
    "addr:city": "Biel/Bienne",
    "addr:country": "CH",
    "addr:housenumber": "1",
    "addr:postcode": "2502",
    "addr:street": "Kirchgässli",
    "addr:street:fr": "Ruelle de l'Église",
    "bulk_purchase": "yes",
    "contact:email": "info@batavia.ch",
    "contact:phone": "+41 32 342 00 64",
    "contact:website": "http://www.batavia.ch",
    "name": "Batavia",
    "opening_hours": "We-Fr 07:00-19:00; Sa 08:30-16:00; Su-Tu off",
    "organic": "yes",
    "shop": "convenience",
    "wheelchair": "no"
  }
},
{
  "type": "node",
  "id": 1574437644,
  "lat": 47.2609125,
  "lon": -1.5167036,
  "tags": {
    "addr:city": "Nantes",
    "addr:housenumber": "20",
    "addr:postcode": "44300",
    "addr:street": "Rue Eugénie Cotton",
    "bulk_purchase": "yes",
    "name": "Chlorophylle Beaujoire",
    "note": "Epicerie Bio",
    "opening_hours": "Mo-Sa 09:00-19:30; Su off",
    "organic": "only",
    "shop": "convenience",
    "website": "http://www.chlorophylle-coop.com/"
  }
},
{
  "type": "node",
  "id": 1577028307,
  "lat": 50.7136090,
  "lon": 7.0448295,
  "tags": {
    "addr:city": "Bonn",
    "addr:country": "DE",
    "addr:housenumber": "266",
    "addr:postcode": "53123",
    "addr:street": "Rochusstraße",
    "bulk_purchase": "yes",
    "email": "info@freikost.de",
    "fax": "+49 228 9669 0332",
    "name": "Freikost Deinet",
    "opening_hours": "Mo-Fr 09:00-18:30; Sa 09:00-14:00; Su,PH off",
    "organic": "yes",
    "phone": "+49 228 9669 0330",
    "shop": "convenience",
    "website": "http://www.freikost.de",
    "wheelchair": "limited"
  }
},
{
  "type": "node",
  "id": 1619954233,
  "lat": 47.2269396,
  "lon": -1.5428944,
  "tags": {
    "addr:city": "Nantes",
    "addr:country": "FR",
    "addr:housenumber": "150",
    "addr:postcode": "44000",
    "addr:street": "Rue du Général Buat",
    "name": "Matthieu Delacroix",
    "shop": "bakery"
  }
},
{
  "type": "node",
  "id": 1619954291,
  "lat": 47.2273051,
  "lon": -1.5426051,
  "tags": {
    "addr:city": "Nantes",
    "addr:housenumber": "144",
    "addr:postcode": "44000",
    "addr:street": "Rue Général Buat",
    "contact:website": "www.leporcbonheur.com",
    "name": "Le Porc Bonheur",
    "shop": "butcher"
  }
},
{
  "type": "node",
  "id": 1619954323,
  "lat": 47.2269116,
  "lon": -1.5426869,
  "tags": {
    "addr:city": "Nantes",
    "addr:country": "FR",
    "addr:housenumber": "101",
    "addr:postcode": "44000",
    "addr:street": "Rue du Général Buat",
    "name": "Loïc Lusson",
    "shop": "butcher"
  }
},
{
  "type": "node",
  "id": 1682930391,
  "lat": 47.5095163,
  "lon": 6.7946911,
  "tags": {
    "addr:city": "Montbéliard",
    "addr:housenumber": "6",
    "addr:postcode": "25200",
    "addr:street": "Cour des Halles",
    "bulk_purchase": "yes",
    "name": "Biocoop",
    "operator": "Biocoop",
    "organic": "only",
    "shop": "supermarket",
    "website": "http://www.biocoop-leshalles.fr"
  }
},
{
  "type": "node",
  "id": 1688797566,
  "lat": 47.2524065,
  "lon": -1.4995435,
  "tags": {
    "addr:city": "Nantes",
    "addr:housenumber": "1",
    "addr:postcode": "44300",
    "addr:street": "Rue du Marché Commun",
    "bulk_purchase": "yes",
    "contact:email": "contact@fleuronbio44.com",
    "name": "Fleuron Bio",
    "opening_hours": "Mo 10:30-19:00; Tu-We 09:30-19:00; Th 09:00-19:30; Fr-Sa 09:30-19:00; Su off",
    "organic": "only",
    "shop": "convenience",
    "source": "Nantes Métropole 11/2011",
    "website": "https://www.fleuronbio44.com/"
  }
},
{
  "type": "node",
  "id": 1700350546,
  "lat": 47.6687133,
  "lon": -2.7958220,
  "tags": {
    "addr:city": "Vannes",
    "addr:housenumber": "1",
    "addr:postcode": "56000",
    "addr:street": "Rue Aristide Boucicaut",
    "bulk_purchase": "yes",
    "name": "L'eau Vive",
    "operator": "L'Eau Vive",
    "organic": "only",
    "shop": "supermarket",
    "website": "http://www.eau-vive.com/pa371/magasin?lieuID=20"
  }
},
{
  "type": "node",
  "id": 1715450516,
  "lat": 48.5495456,
  "lon": -1.7520583,
  "tags": {
    "addr:city": "Dol-de-Bretagne",
    "addr:housenumber": "15 Bis",
    "addr:postcode": "35120",
    "addr:street": "Boulevard Deminiac",
    "bulk_purchase": "yes",
    "name": "Biocoop Le Chat Biotté",
    "organic": "only",
    "shop": "supermarket",
    "source": "knowledge",
    "website": "http://biocoop.fr/magasins-bio/Trouver-mon-magasin-Biocoop/Bretagne/Ille-et-Vilaine/LE-CHAT-BIOTTE2"
  }
},
{
  "type": "node",
  "id": 1727920548,
  "lat": 47.2176945,
  "lon": -1.5552341,
  "tags": {
    "addr:city": "Nantes",
    "addr:housenumber": "3",
    "addr:postcode": "44000",
    "addr:street": "Rue de l'Hôtel de Ville",
    "bulk_purchase": "only",
    "description": "Boutique sans emballage. Produits alimentaires (farine,céréales,pâtes...), produits du quotidien (lessive…)",
    "email": "contact@obocal.com",
    "name": "Boutique Ô Bocal",
    "opening_hours": "Tu-Fr 10:00-19:30; Sa 10:00-19:00",
    "organic": "only",
    "shop": "convenience",
    "source": "Association Mieux trier à Nantes, 07/2016",
    "website": "http://www.obocal.com/"
  }
},
{
  "type": "node",
  "id": 1739077819,
  "lat": 42.9647447,
  "lon": 1.6092369,
  "tags": {
    "addr:city": "Foix",
    "addr:housenumber": "20",
    "addr:postcode": "09000",
    "addr:street": "Rue Saint-Vincent",
    "bulk_purchase": "yes",
    "name": "Biocoop Mirabelle",
    "operator": "Biocoop",
    "organic": "only",
    "shop": "supermarket",
    "website": "http://biocoop.fr/magasins-bio/Trouver-mon-magasin-Biocoop/Occitanie2/Ariege/BIOCOOP-MIRABELLE"
  }
},
{
  "type": "node",
  "id": 1786626414,
  "lat": 48.1135228,
  "lon": -1.6071457,
  "tags": {
    "addr:city": "Cesson-Sévigné",
    "addr:housenumber": "8",
    "addr:postcode": "35510",
    "addr:street": "Avenue des Peupliers",
    "brand:wikipedia": "fr:Biocoop",
    "bulk_purchase": "yes",
    "name": "Biocoop Scarabée Cesson",
    "opening_hours": "Mo-Fr 09:30-19:00",
    "operator": "Société coopérative d'alimentation rennaise biologique et écologique",
    "organic": "only",
    "phone": "+33 2 99 83 09 84",
    "shop": "supermarket",
    "source:addr": "Rennes Métropole",
    "source:addr:housenumber:ref": "44048",
    "source:addr:version": "2016-04-01",
    "website": "http://www.scarabee-biocoop.fr",
    "wheelchair": "yes"
  }
},
{
  "type": "node",
  "id": 1797889998,
  "lat": 46.6932211,
  "lon": -1.4331839,
  "tags": {
    "addr:city": "La Roche-sur-Yon",
    "addr:housenumber": "91",
    "addr:postcode": "85000",
    "addr:street": "Rue Philippe Lebon",
    "bulk_purchase": "yes",
    "contact:phone": "+33 2 51 40 27 69",
    "currency:XLT": "VNDO",
    "description": "Supermarché bio et équitable",
    "name": "Croq'Bio Nord",
    "operator": "Biocoop",
    "organic": "only",
    "payment:cash:XLT-VNDO": "yes",
    "shop": "supermarket",
    "website": "https://www.biocoop-croqbio.com/"
  }
},
{
  "type": "node",
  "id": 1814839942,
  "lat": 47.2398720,
  "lon": 6.0343095,
  "tags": {
    "addr:city": "Besançon",
    "addr:housenumber": "3",
    "addr:postcode": "25000",
    "addr:street": "Allée de l'Île aux Moineaux",
    "brand": "Biocoop",
    "brand:wikidata": "Q2904039",
    "brand:wikipedia": "fr:Biocoop",
    "bulk_purchase": "yes",
    "contact:housenumber": "3",
    "contact:phone": "+33 6 28 27 75 52",
    "currency:XLT": "PIVE",
    "level": "0",
    "name": "Biocoop La Canopée",
    "opening_hours": "Mo 14:30-19:30; Tu-Th 09:30-13:00,14:30-19:30; Fr 09:30-19:30; Sa 09:00-19:00",
    "operator": "Biocoop La Canopée",
    "organic": "only",
    "payment:cash:XLT-PIVE": "yes",
    "phone": "+33 3 81 80 25 47",
    "ref:FR:NAF": "4729Z",
    "ref:FR:SIRET": "49322169100014",
    "shop": "supermarket",
    "source": "cadastre-dgi-fr source : Direction Générale des Impôts - Cadastre. Mise à jour : 2012",
    "website": "http://lacanopee-besancon.biocoop.net"
  }
},
{
  "type": "node",
  "id": 1824008981,
  "lat": 48.1115685,
  "lon": -1.2065822,
  "tags": {
    "addr:city": "Vitré",
    "addr:housenumber": "17",
    "addr:postcode": "35500",
    "addr:street": "Rue des Artisans",
    "brand": "Biocoop",
    "brand:wikidata": "Q2904039",
    "brand:wikipedia": "fr:Biocoop",
    "bulk_purchase": "yes",
    "name": "Biocoop Pays de Vitré",
    "organic": "only",
    "shop": "supermarket",
    "website": "http://biocoop.fr/magasins-bio/Trouver-mon-magasin-Biocoop/Bretagne/Ille-et-Vilaine/BIOCOOP-PAYS-DE-VITRE",
    "wheelchair": "yes"
  }
},
{
  "type": "node",
  "id": 1888009599,
  "lat": 48.5446251,
  "lon": 7.7410065,
  "tags": {
    "bulk_purchase": "yes",
    "name": "Auchan Illkirch",
    "operator": "Auchan",
    "shop": "supermarket"
  }
},
{
  "type": "node",
  "id": 1910398310,
  "lat": 47.5604537,
  "lon": -2.5075932,
  "tags": {
    "addr:city": "Muzillac",
    "addr:postcode": "56190",
    "brand": "Biocoop",
    "brand:wikidata": "Q2904039",
    "brand:wikipedia": "fr:Biocoop",
    "bulk_purchase": "yes",
    "name": "Biocoop Le Panier Bio",
    "operator": "Panier Bio",
    "organic": "only",
    "phone": "+33 2 97 45 60 70",
    "shop": "supermarket",
    "source": "connaissance personnelle",
    "website": "http://biocooplepanierbio.com"
  }
},
{
  "type": "node",
  "id": 2086186228,
  "lat": 47.8699692,
  "lon": -3.5919584,
  "tags": {
    "addr:city": "Mellac",
    "addr:housenumber": "27",
    "addr:postcode": "29300",
    "addr:street": "Rue Pierre Gilles de Gennes",
    "bulk_purchase": "yes",
    "name": "Biocoop Les 7 Épis",
    "opening_hours": "Mo-Sa 09:30-19:00",
    "operator": "Les 7 Épis",
    "organic": "only",
    "phone": "+33 2 98 09 07 72",
    "shop": "supermarket",
    "website": "https://www.les7epis.fr/"
  }
},
{
  "type": "node",
  "id": 2108864449,
  "lat": 47.2910573,
  "lon": -2.2108191,
  "tags": {
    "addr:city": "Trignac",
    "addr:postcode": "44570",
    "addr:street": "Rue des Aigrettes",
    "bulk_purchase": "yes",
    "name": "Les Hameaux Bio Biocoop Trignac",
    "opening_hours": "Mo-Sa 09:30-19:15; Su off",
    "organic": "only",
    "shop": "supermarket",
    "website": "http://www.leshameauxbio.fr/magasins/o%C3%B9-sommes-nous/trignac/"
  }
},
{
  "type": "node",
  "id": 2127883659,
  "lat": 48.4544633,
  "lon": -4.2566725,
  "tags": {
    "addr:city": "Landerneau",
    "addr:housenumber": "11",
    "addr:postcode": "29800",
    "addr:street": "Rue Henri Dunant",
    "brand:wikidata": "Q2904039",
    "brand:wikipedia": "fr:Biocoop",
    "bulk_purchase": "yes",
    "name": "Biocoop",
    "operator": "La Clef des Champs",
    "organic": "only",
    "phone": "+33 2 98 30 35 90",
    "shop": "supermarket",
    "website": "http://www.laclefdeschamps.ouvaton.org"
  }
},
{
  "type": "node",
  "id": 2255955928,
  "lat": 47.2175592,
  "lon": -1.5520688,
  "tags": {
    "addr:city": "Nantes",
    "addr:housenumber": "18",
    "addr:postcode": "44000",
    "addr:street": "Rue de Verdun",
    "contact:city": "Nantes",
    "contact:country": "FR",
    "contact:housenumber": "1",
    "contact:postcode": "44000",
    "contact:street": "Rue Saint-Denis",
    "contact:website": "http://bionant.net/",
    "name": "bio-Nant'",
    "organic": "only",
    "shop": "greengrocer"
  }
},
{
  "type": "node",
  "id": 2258874081,
  "lat": 47.2158933,
  "lon": -1.5549826,
  "tags": {
    "addr:city": "Nantes",
    "addr:housenumber": "4",
    "addr:postcode": "44000",
    "addr:street": "Rue des Carmes",
    "contact:city": "Nantes",
    "contact:country": "FR",
    "contact:housenumber": "8",
    "contact:postcode": "44000",
    "contact:street": "Rue des Carmes",
    "name": "Leonidas",
    "opening_hours": "Tu-Sa 10:00-19:00",
    "shop": "confectionery"
  }
},
{
  "type": "node",
  "id": 2258874082,
  "lat": 47.2165132,
  "lon": -1.5550782,
  "tags": {
    "addr:city": "Nantes",
    "addr:housenumber": "5",
    "addr:postcode": "44000",
    "addr:street": "Rue des Bons Français",
    "amenity": "cafe",
    "contact:city": "Nantes",
    "contact:country": "FR",
    "contact:housenumber": "5",
    "contact:postcode": "44000",
    "contact:street": "Rue des Bons Français",
    "name": "Mango"
  }
},
{
  "type": "node",
  "id": 2258874087,
  "lat": 47.2164559,
  "lon": -1.5552468,
  "tags": {
    "addr:city": "Nantes",
    "addr:housenumber": "22",
    "addr:postcode": "44000",
    "addr:street": "Rue des Carmes",
    "contact:city": "Nantes",
    "contact:country": "FR",
    "contact:housenumber": "22",
    "contact:postcode": "44000",
    "contact:street": "Rue des Carmes",
    "name": "Sources",
    "opening_hours": "mon off; tue-sat 10:00-19:30; sun off",
    "shop": "deli"
  }
},
{
  "type": "node",
  "id": 2289128176,
  "lat": 47.2148493,
  "lon": -1.5538938,
  "tags": {
    "addr:city": "Nantes",
    "addr:housenumber": "3",
    "addr:postcode": "44000",
    "addr:street": "Rue du Bouffay",
    "contact:city": "Nantes",
    "contact:country": "FR",
    "contact:housenumber": "3",
    "contact:postcode": "44000",
    "contact:street": "Rue du Bouffay",
    "name": "Boucherie du Bouffay",
    "shop": "butcher"
  }
},
{
  "type": "node",
  "id": 2320443633,
  "lat": 47.2151685,
  "lon": -1.5527066,
  "tags": {
    "addr:city": "Nantes",
    "addr:housenumber": "6",
    "addr:postcode": "44000",
    "addr:street": "Rue des Échevins",
    "contact:city": "Nantes",
    "contact:country": "FR",
    "contact:housenumber": "6",
    "contact:postcode": "44000",
    "contact:street": "Rue des Échevins",
    "contact:website": "http://www.lebouffay-spagnol.fr/",
    "name": "Le Bouffay Spañol",
    "origin": "spanish",
    "shop": "deli"
  }
},
{
  "type": "node",
  "id": 2333397301,
  "lat": 48.8901546,
  "lon": 2.3614003,
  "tags": {
    "amenity": "pub",
    "bulk_purchase": "yes",
    "name": "En Vrac",
    "opening_hours": "Mo 17:00-21:00; Tu-Sa 10:00-22:00; Su 10:00-21:00",
    "restaurant": "yes",
    "shop": "alcohol",
    "website": "http://www.vinenvrac.fr/"
  }
},
{
  "type": "node",
  "id": 2339921978,
  "lat": 43.6183918,
  "lon": 1.4369664,
  "tags": {
    "addr:city": "Toulouse",
    "addr:postcode": "31200",
    "addr:street": "Avenue Frédéric Estèbe",
    "bulk_purchase": "yes",
    "change:XLT-SVLT": "yes",
    "contact:housenumber": "7",
    "contact:phone": "+33 5 34 42 01 56",
    "currency:XLT": "SVLT",
    "name": "Biocoop les minimes",
    "opening_hours": "Tu-Sa 09:30-20:00; Mo 14:00-20:00",
    "operator": "Biocoop",
    "organic": "only",
    "payment:cash:XLT-SVLT": "yes",
    "ref:FR:NAF": "4729Z",
    "shop": "supermarket",
    "website": "http://www.biominimes.fr/"
  }
},
{
  "type": "node",
  "id": 2393205127,
  "lat": 47.2162797,
  "lon": -1.5521914,
  "tags": {
    "addr:city": "Nantes",
    "addr:housenumber": "12",
    "addr:postcode": "44000",
    "addr:street": "Rue du Château",
    "amenity": "restaurant",
    "capacity": "45",
    "contact:city": "Nantes",
    "contact:country": "FR",
    "contact:housenumber": "12",
    "contact:postcode": "44000",
    "contact:street": "Rue du Château",
    "cuisine": "french",
    "name": "Dînette",
    "opening_hours": "Mo-Su 12:00-19:00; Tu off",
    "phone": "+33 2 51 82 79 13",
    "smoking": "outside",
    "website": "https://www.facebook.com/dinettenantes/",
    "wheelchair": "limited"
  }
},
{
  "type": "node",
  "id": 2416353080,
  "lat": 47.1279578,
  "lon": -2.1233429,
  "tags": {
    "addr:city": "Pornic",
    "addr:housenumber": "1",
    "addr:postcode": "44210",
    "addr:street": "Rue du traité de Lisbonne",
    "bulk_purchase": "yes",
    "name": "Les Hameaux Bio Biocoop Pornic",
    "opening_hours": "Mo-Sa 09:30-19:15; Su off",
    "organic": "only",
    "shop": "supermarket",
    "website": "http://www.leshameauxbio.fr/magasins/o%C3%B9-sommes-nous/pornic/"
  }
},
{
  "type": "node",
  "id": 2458144305,
  "lat": 43.6030175,
  "lon": 1.4442396,
  "tags": {
    "addr:city": "Toulouse",
    "addr:postcode": "31000",
    "addr:street": "rue Baour-Lormian",
    "bulk_purchase": "yes",
    "contact:housenumber": "7",
    "cuisine": "regional",
    "currency:XLT": "SVLT",
    "email": "bonjour@ceci-et-cela.fr",
    "name": "Ceci & cela",
    "opening_hours": "Mo 15:00-19:00; Tu-Sa 10:00-20:00",
    "organic": "yes",
    "payment:cash:XLT-SVLT": "yes",
    "phone": "+33 5 82 74 90 31",
    "ref:FR:NAF": "4711B",
    "ref:FR:SIRET": "81945850600014",
    "shop": "convenience",
    "source": "knowledge",
    "website": "http://www.ceci-et-cela.fr/"
  }
},
{
  "type": "node",
  "id": 2472326806,
  "lat": 44.4127116,
  "lon": 4.3710740,
  "tags": {
    "addr:city": "Vallon-Pont-d'Arc",
    "addr:postcode": "07150",
    "addr:street": "Allée des Chênes",
    "bulk_purchase": "yes",
    "name": "Biocoop La maison du Bio",
    "opening_hours": "Mo-Sa 08:30-12:30,15:00-19:00",
    "organic": "only",
    "shop": "supermarket",
    "website": "http://biocoop.fr/magasins-bio/Trouver-mon-magasin-Biocoop/Auvergne-Rhone-Alpes/Ardeche/BIOCOOP-LA-MAISON-DU-BIO"
  }
},
{
  "type": "node",
  "id": 2485095784,
  "lat": 47.2160389,
  "lon": -1.5530568,
  "tags": {
    "addr:city": "Nantes",
    "addr:housenumber": "12",
    "addr:postcode": "44000",
    "addr:street": "Place du Pilori",
    "amenity": "fast_food",
    "contact:city": "Nantes",
    "contact:country": "FR",
    "contact:housenumber": "12",
    "contact:postcode": "44000",
    "contact:street": "Place du Pilori",
    "cuisine": "sandwich",
    "name": "La Tartinerie",
    "takeaway": "yes",
    "wheelchair": "yes"
  }
},
{
  "type": "node",
  "id": 2504104917,
  "lat": 45.8299523,
  "lon": 1.2556377,
  "tags": {
    "addr:street": "Rue Othon Péconnet",
    "bulk_purchase": "only",
    "change:XLT-PELU": "yes",
    "contact:phone": "+335 55 33 58 97",
    "contact:website": "http://daybyday-shop.com/magasin/limoges",
    "currency:XLT": "PELU",
    "name": "Day by Day",
    "opening_hours": "Tu-Sa 09:30-13:00,14:30-19:30",
    "operator": "Day by Day",
    "payment:cash:XLT-PELU": "yes",
    "shop": "convenience"
  }
},
{
  "type": "node",
  "id": 2522905250,
  "lat": 43.6128531,
  "lon": 1.3056633,
  "tags": {
    "addr:city": "Colomiers",
    "addr:housenumber": "1",
    "addr:postcode": "31770",
    "addr:street": "Avenue André Marie Ampère",
    "bulk_purchase": "yes",
    "contact:phone": "+33 5 61 49 14 74",
    "currency:XLT": "SVLT",
    "name": "Biocoop le Perget",
    "network": "Biocoop",
    "opening_hours": "Mo 15:00-19:30; Tu-Sa 09:30-19:30",
    "operator": "biocoop",
    "organic": "only",
    "payment:cash:XLT-SVLT": "yes",
    "shop": "supermarket",
    "website": "http://www.biocoop-leperget.com",
    "wheelchair": "yes"
  }
},
{
  "type": "node",
  "id": 2583958955,
  "lat": 47.2066461,
  "lon": -1.5491679,
  "tags": {
    "addr:city": "Nantes",
    "addr:housenumber": "8",
    "addr:postcode": "44200",
    "addr:street": "Rue Grande Biesse",
    "amenity": "restaurant",
    "capacity": "30",
    "cuisine": "bistro",
    "name": "La Grande Barge",
    "outdoor_seating": "yes",
    "takeaway": "yes"
  }
},
{
  "type": "node",
  "id": 2607658264,
  "lat": 47.2174721,
  "lon": -1.5517781,
  "tags": {
    "addr:city": "Nantes",
    "addr:housenumber": "15",
    "addr:postcode": "44000",
    "addr:street": "Rue de Verdun",
    "contact:city": "Nantes",
    "contact:country": "FR",
    "contact:housenumber": "15",
    "contact:postcode": "44000",
    "contact:street": "Rue de Verdun",
    "name": "La Crêmerie des Carmélites",
    "shop": "cheese"
  }
},
{
  "type": "node",
  "id": 2607658274,
  "lat": 47.2173353,
  "lon": -1.5520038,
  "tags": {
    "addr:city": "Nantes",
    "addr:housenumber": "21",
    "addr:postcode": "44000",
    "addr:street": "Rue de Verdun",
    "contact:city": "Nantes",
    "contact:country": "FR",
    "contact:housenumber": "21",
    "contact:phone": "+33 2 40 89 06 71",
    "contact:postcode": "44000",
    "contact:street": "Rue de Verdun",
    "contact:website": "http://www.songcomptoir.fr",
    "name": "Olibaba",
    "shop": "convenience"
  }
},
{
  "type": "node",
  "id": 2611030688,
  "lat": 43.6389313,
  "lon": 1.5007776,
  "tags": {
    "addr:city": "L'Union",
    "addr:housenumber": "2",
    "addr:postcode": "31240",
    "addr:street": "Rue d'Ariane",
    "bulk_purchase": "yes",
    "name": "Biocoop",
    "organic": "only",
    "shop": "supermarket",
    "website": "http://www.biocoop-montredon.com"
  }
},
{
  "type": "node",
  "id": 2672093889,
  "lat": 47.3726034,
  "lon": -1.9319780,
  "tags": {
    "addr:city": "Savenay",
    "addr:postcode": "44260",
    "addr:street": "Les Fretauderies",
    "brand": "Biocoop",
    "bulk_purchase": "yes",
    "name": "Biocoop Le Sillon Bio",
    "opening_hours": "Mo-Th 09:00-13:00, 14:30-19:00; Fr-Sa 09:00-19:00; Su off",
    "operator": "Le Sillon Bio",
    "organic": "only",
    "shop": "supermarket",
    "website": "http://www.lesillonbio.com/"
  }
},
{
  "type": "node",
  "id": 2696131012,
  "lat": 45.7474467,
  "lon": -0.6733879,
  "tags": {
    "addr:city": "Saintes",
    "addr:housenumber": "4",
    "addr:postcode": "17100",
    "addr:street": "Rue du Champ de Tir",
    "bulk_purchase": "yes",
    "name": "Biocoop",
    "organic": "only",
    "shop": "supermarket",
    "website": "http://www.biocoopdupayssanton.fr/"
  }
},
{
  "type": "node",
  "id": 2759353718,
  "lat": 47.2122712,
  "lon": -1.5560079,
  "tags": {
    "addr:city": "Nantes",
    "addr:housenumber": "11",
    "addr:postcode": "44000",
    "addr:street": "Quai Turenne",
    "amenity": "restaurant",
    "contact:city": "Nantes",
    "contact:facebook": "https://www.facebook.com/totumcantinebio",
    "contact:housenumber": "11",
    "contact:instagram": "totum_cantine_bio",
    "contact:phone": "+33 6 10 53 22 20",
    "contact:postcode": "44000",
    "contact:street": "Quai Turenne",
    "contact:twitter": "@totumcantinebio",
    "contact:website": "http://www.totumcantine.bio",
    "diet:gluten_free": "only",
    "diet:vegan": "only",
    "diet:vegetarian": "yes",
    "name": "Totum ― cantine bio",
    "opening_hours": "Tu-Fr 10:00-19:00; Sa 10:00-21:30",
    "organic": "only",
    "outdoor_seating": "yes",
    "takeaway": "yes",
    "toilets:wheelchair": "no",
    "wheelchair": "no"
  }
},
{
  "type": "node",
  "id": 2768073037,
  "lat": 43.1875454,
  "lon": 3.0041921,
  "tags": {
    "addr:city": "Narbonne",
    "addr:housenumber": "36A",
    "addr:postcode": "11100",
    "addr:street": "Boulevard Marcel Sembat",
    "bulk_purchase": "yes",
    "name": "Biocoop Terrabio Centre",
    "operator": "Biocoop",
    "organic": "only",
    "shop": "supermarket",
    "website": "http://www.biocoop-narbonne.com/"
  }
},
{
  "type": "node",
  "id": 2909745301,
  "lat": 42.9821566,
  "lon": 1.1498869,
  "tags": {
    "addr:city": "Saint-Girons",
    "addr:housenumber": "15",
    "addr:postcode": "09200",
    "addr:street": "Avenue d Aulot",
    "bulk_purchase": "yes",
    "name": "Biocoop Bio's Faire",
    "organic": "only",
    "shop": "supermarket",
    "website": "http://biocoop.fr/magasins-bio/Trouver-mon-magasin-Biocoop/Occitanie2/Ariege/BIO-S-FAIRE"
  }
},
{
  "type": "node",
  "id": 2976418012,
  "lat": 44.2937442,
  "lon": 2.5608637,
  "tags": {
    "addr:city": "Luc-la-Primaube",
    "addr:housenumber": "32",
    "addr:postcode": "12450",
    "addr:street": "Place de l'Étoile",
    "bulk_purchase": "yes",
    "name": "Biocoop Prim'Nature",
    "note": "Magasin de produits bio.",
    "opening_hours": "Tu-Sa 09:30-12:00,14:00-19:00",
    "organic": "only",
    "phone": "+33 5 65 47 07 93",
    "shop": "convenience",
    "website": "https://www.biocoop.fr/magasins-bio/Trouver-mon-magasin-Biocoop/Occitanie2/Aveyron/BIOCOOP-LA-PRIMAUBE"
  }
},
{
  "type": "node",
  "id": 3054272792,
  "lat": 48.8734246,
  "lon": 2.3707684,
  "tags": {
    "bulk_purchase": "yes",
    "contact:website": "http://latetedanslesolives.com/laboutique",
    "name": "La tête dans les olives",
    "opening_hours": "Tu-Fr 14:00-19:00; Sa 10:00-13:00,14:00-19:00",
    "shop": "deli"
  }
},
{
  "type": "node",
  "id": 3074632873,
  "lat": 46.1747434,
  "lon": -1.1605985,
  "tags": {
    "addr:city": "Lagord",
    "addr:housenumber": "297",
    "addr:postcode": "17140",
    "addr:street": "Avenue des Corsaires",
    "bulk_purchase": "yes",
    "name": "Biocoop La Rochelle Nord",
    "organic": "only",
    "shop": "supermarket",
    "website": "http://larochelle-nord.biocoop.net"
  }
},
{
  "type": "node",
  "id": 3076501374,
  "lat": 43.8207197,
  "lon": 5.7936504,
  "tags": {
    "addr:city": "Manosque",
    "addr:postcode": "04100",
    "addr:street": "Avenue de la Libération",
    "bulk_purchase": "yes",
    "change:XLT-ROUE": "yes",
    "currency:XLT": "ROUE",
    "name": "Biocoop - Le Blé en Herbe",
    "organic": "only",
    "shop": "supermarket",
    "website": "http://lebleenherbe.biocoop.net/"
  }
},
{
  "type": "node",
  "id": 3094180230,
  "lat": 47.2166901,
  "lon": -1.5554971,
  "tags": {
    "addr:city": "Nantes",
    "addr:housenumber": "1-3",
    "addr:postcode": "44000",
    "addr:street": "Rue Saint-Léonard",
    "contact:city": "Nantes",
    "contact:country": "FR",
    "contact:housenumber": "3",
    "contact:postcode": "44000",
    "contact:street": "Rue Saint-Léonard",
    "contact:website": "http://www.cafeclavreul.com",
    "craft": "coffee_roaster",
    "name": "Au Bon Café Clavreul",
    "shop": "coffee"
  }
},
{
  "type": "node",
  "id": 3097016385,
  "lat": 47.2541524,
  "lon": -1.6172077,
  "tags": {
    "addr:city": "Orvault",
    "addr:country": "FR",
    "addr:housenumber": "8",
    "addr:postcode": "44700",
    "addr:street": "Rue du Commandant Charcot",
    "bulk_purchase": "yes",
    "contact:phone": "+33 2 40 63 42 43",
    "fair_trade": "yes",
    "name": "Biocoop",
    "note": "Produits Bio",
    "opening_hours": "Mo-Fr 09:30-19:30; Sa 09:30-19:00; Su off",
    "organic": "only",
    "payment:cash": "yes",
    "payment:credit_cards": "yes",
    "payment:mastercard": "yes",
    "payment:visa": "yes",
    "shop": "supermarket",
    "website": "https://www.biocoop.fr/magasins-bio/Trouver-mon-magasin-Biocoop/Pays-de-la-Loire/Loire-Atlantique/BIOCOOP-NANTES-ORVAULT",
    "wheelchair": "yes"
  }
},
{
  "type": "node",
  "id": 3097043664,
  "lat": 47.2041496,
  "lon": -1.5504689,
  "tags": {
    "addr:city": "Nantes",
    "addr:country": "FR",
    "addr:housenumber": "17",
    "addr:postcode": "44200",
    "addr:street": "Boulevard Gustave Roch",
    "bulk_purchase": "yes",
    "contact:phone": "+33 2 40 48 55 67",
    "contact:website": "https://www.biocoop.fr/magasins-bio/Trouver-mon-magasin-Biocoop/Pays-de-la-Loire/Loire-Atlantique/BIOCOOP-NANTES-REPUBLIQUE",
    "fair_trade": "yes",
    "name": "Biocoop",
    "opening_hours": "Mo 12:00-19:30; Tu-Fr 09:30-19:30; Sa 09:30-19:00",
    "organic": "only",
    "payment:cash": "yes",
    "payment:credit_cards": "yes",
    "payment:mastercard": "yes",
    "payment:visa": "yes",
    "shop": "supermarket",
    "wheelchair": "yes"
  }
},
{
  "type": "node",
  "id": 3125795830,
  "lat": 47.2126766,
  "lon": -1.5592506,
  "tags": {
    "addr:city": "Nantes",
    "addr:housenumber": "7",
    "addr:postcode": "44000",
    "addr:street": "Place de la Bourse",
    "amenity": "restaurant",
    "cuisine": "french",
    "name": "YOU!"
  }
},
{
  "type": "node",
  "id": 3181284286,
  "lat": 48.8477752,
  "lon": 2.3188691,
  "tags": {
    "addr:city": "Paris",
    "addr:housenumber": "70",
    "addr:postcode": "75007",
    "addr:street": "rue de sevres",
    "bulk_purchase": "only",
    "name": "Day by Day",
    "operator": "Day by Day",
    "shop": "convenience",
    "website": "http://daybyday-shop.com/"
  }
},
{
  "type": "node",
  "id": 3217141717,
  "lat": 48.5055943,
  "lon": -2.7638890,
  "tags": {
    "addr:city": "Saint-Brieuc",
    "addr:housenumber": "10",
    "addr:postcode": "22000",
    "addr:street": "Rue de Robien",
    "brand": "Biocoop",
    "brand:wikidata": "Q2904039",
    "brand:wikipedia": "fr:Biocoop",
    "bulk_purchase": "yes",
    "name": "Biocoop La Gambille",
    "organic": "only",
    "shop": "supermarket",
    "website": "http://lagambille.biocoop.net/",
    "wheelchair": "yes"
  }
},
{
  "type": "node",
  "id": 3287410833,
  "lat": 48.8414380,
  "lon": 2.3029770,
  "tags": {
    "addr:housenumber": "1",
    "addr:street": "Rue du Général Beuret",
    "amenity": "shop",
    "bulk_purchase": "only",
    "name": "day by day",
    "shop": "convenience"
  }
},
{
  "type": "node",
  "id": 3296968269,
  "lat": 46.9690911,
  "lon": -1.3271961,
  "tags": {
    "addr:city": "Boufféré",
    "addr:housenumber": "5",
    "addr:postcode": "85600",
    "addr:street": "Rue Alfred Nobel",
    "bulk_purchase": "yes",
    "name": "Biocoop Montaigu",
    "opening_hours": "Mo-Fr 09:00-13:00,14:30-19:00; Sa 09:00-19:00",
    "organic": "only",
    "shop": "supermarket",
    "website": "http://www.biocoopmontaigu.com"
  }
},
{
  "type": "node",
  "id": 3333942666,
  "lat": 47.0487570,
  "lon": -1.6347666,
  "tags": {
    "addr:city": "Saint-Philbert-de-Grand-Lieu",
    "addr:housenumber": "7",
    "addr:postcode": "44310",
    "addr:street": "Le moulin de la chaussée",
    "bulk_purchase": "yes",
    "name": "Biocoop du Lac",
    "opening_hours": "Mo 15:00-19:30; Tu-Sa 09:00-13:00,15:00-19:30",
    "organic": "yes",
    "shop": "convenience",
    "website": "https://www.biocoop.fr/magasins-bio/Trouver-mon-magasin-Biocoop/Pays-de-la-Loire/Loire-Atlantique/BIOCOOP-DU-LAC"
  }
},
{
  "type": "node",
  "id": 3409181065,
  "lat": 47.3755787,
  "lon": -1.1947395,
  "tags": {
    "addr:city": "Saint-Géréon",
    "addr:housenumber": "104",
    "addr:postcode": "44150",
    "addr:street": "Rue du Bocage",
    "bulk_purchase": "yes",
    "name": "Biocoop",
    "opening_hours": "Mo 14:00-19:00; Tu-Sa 09:00-12:30, 14:00-19:00; Su off",
    "organic": "only",
    "phone": "+33 2 40831925",
    "shop": "supermarket",
    "website": "http://www.biocoop-ancenis.fr/"
  }
},
{
  "type": "node",
  "id": 3462901517,
  "lat": 43.5998426,
  "lon": 1.4442598,
  "tags": {
    "addr:city": "Toulouse",
    "addr:housenumber": "7",
    "addr:postcode": "31000",
    "addr:street": "Place de la Trinité",
    "bulk_purchase": "yes",
    "change:XLT-SVLT": "yes",
    "contact:housenumber": "7",
    "contact:phone": "+33 5 34 42 49 19",
    "currency:XLT": "SVLT",
    "name": "Biocoop Trinité",
    "opening_hours": "Tu-Sa 10:00-20:00; Mo 11:00-20:00",
    "operator": "Biocoop",
    "organic": "only",
    "payment:cash:XLT-SVLT": "yes",
    "ref:FR:NAF": "4711B",
    "ref:FR:SIRET": "79915846400013",
    "shop": "supermarket",
    "website": "http://www.biocooptrinite-toulouse.com/"
  }
},
{
  "type": "node",
  "id": 3470086335,
  "lat": 47.2395925,
  "lon": -1.5135479,
  "tags": {
    "addr:city": "Nantes",
    "addr:housenumber": "211",
    "addr:postcode": "44300",
    "addr:street": "Route de Sainte-Luce",
    "name": "La boule carré",
    "shop": "bakery"
  }
},
{
  "type": "node",
  "id": 3474743920,
  "lat": 47.2281879,
  "lon": -1.5417474,
  "tags": {
    "addr:city": "Nantes",
    "addr:housenumber": "120",
    "addr:postcode": "44000",
    "addr:street": "Rue Général Buat",
    "name": "Crèmerie Saint-Do",
    "shop": "dairy"
  }
},
{
  "type": "node",
  "id": 3474835769,
  "lat": 47.2280444,
  "lon": -1.5419010,
  "tags": {
    "addr:city": "Nantes",
    "addr:housenumber": "128",
    "addr:postcode": "44000",
    "addr:street": "Rue Général Buat",
    "name": "Couleur Chocolat",
    "shop": "chocolate",
    "source": "J'aime tes bocaux"
  }
},
{
  "type": "node",
  "id": 3474835770,
  "lat": 47.2279906,
  "lon": -1.5419386,
  "tags": {
    "addr:city": "Nantes",
    "addr:housenumber": "130",
    "addr:postcode": "44000",
    "addr:street": "Rue Général Buat",
    "name": "Le Verger de Saint-Do",
    "shop": "greengrocer"
  }
},
{
  "type": "node",
  "id": 3676423718,
  "lat": 47.2243684,
  "lon": -1.5501701,
  "tags": {
    "addr:city": "Nantes",
    "addr:housenumber": "14",
    "addr:postcode": "44000",
    "addr:street": "Rue Pitre Chevalier",
    "brand": "La Vie Claire",
    "brand:wikidata": "Q3213589",
    "brand:wikipedia": "fr:La Vie claire",
    "bulk_purchase": "yes",
    "name": "La Vie Claire",
    "opening_hours": "Mo 11:30-19:00; Tu-Sa 08:30-19:00; Su off",
    "organic": "only",
    "shop": "supermarket",
    "website": "http://www.lavieclaire.com/magasin-bio/nantes.html"
  }
},
{
  "type": "node",
  "id": 3677690050,
  "lat": 45.1983302,
  "lon": 0.6602260,
  "tags": {
    "addr:city": "Chancelade",
    "addr:postcode": "24650",
    "addr:street": "Route de Ribérac",
    "bulk_purchase": "yes",
    "name": "Biocoop Graine d'or 3",
    "organic": "only",
    "shop": "supermarket",
    "website": "http://www.biocoop-chancelade.fr"
  }
},
{
  "type": "node",
  "id": 3683626198,
  "lat": 47.2119489,
  "lon": -1.5462896,
  "tags": {
    "addr:city": "Nantes",
    "addr:housenumber": "5",
    "addr:postcode": "44000",
    "addr:street": "Rue de Colmar",
    "amenity": "restaurant",
    "contact:facebook": "https://www.facebook.com/restaurantPapill",
    "contact:phone": "+33 6 03130504",
    "contact:twitter": "@Papill_Nantes",
    "craft": "caterer",
    "cuisine": "french",
    "name": "Papill'",
    "opening_hours": "Mo-Fr 11:30-14:30",
    "takeaway": "yes"
  }
},
{
  "type": "node",
  "id": 3792409253,
  "lat": 47.2611509,
  "lon": -1.5821251,
  "tags": {
    "addr:city": "Nantes",
    "addr:housenumber": "188",
    "addr:postcode": "44300",
    "addr:street": "Route de Rennes",
    "bulk_purchase": "yes",
    "name": "Biocoop",
    "opening_hours": "Mo-Fr 09:30-19:30; Sa 09:30-19:00; Su off",
    "operator": "Biocoop",
    "organic": "only",
    "shop": "supermarket",
    "website": "https://www.biocoop.fr/magasins-bio/Trouver-mon-magasin-Biocoop/Pays-de-la-Loire/Loire-Atlantique/BIOCOOP-DU-LAC"
  }
},
{
  "type": "node",
  "id": 3798285433,
  "lat": 47.2264688,
  "lon": -1.6386397,
  "tags": {
    "addr:city": "Saint-Herblain",
    "addr:housenumber": "332",
    "addr:postcode": "44800",
    "addr:street": "Boulevard Marcel Paul",
    "bulk_purchase": "yes",
    "name": "Biocoop Les Halles Nantes Ouest",
    "opening_hours": "Mo-Th 09:30-19:00; Fr-Sa 09:00-19:00; Su off",
    "organic": "only",
    "shop": "supermarket",
    "website": "http://stherblainleshalles.biocoop.net/"
  }
},
{
  "type": "node",
  "id": 3832040657,
  "lat": 51.9511131,
  "lon": 7.6248277,
  "tags": {
    "addr:housenumber": "52-54",
    "addr:postcode": "48153",
    "addr:street": "Hammer Straße",
    "bulk_purchase": "yes",
    "description": "unverpackt-Konzept",
    "name": "Einzelhandel - zum Wohlfüllen",
    "opening_hours": "Mo-Fr 09:30-19:00; Sa 10:00-17:00",
    "shop": "supermarket",
    "website": "http://www.einzelhandel.ms/"
  }
},
{
  "type": "node",
  "id": 3888792442,
  "lat": 48.8077025,
  "lon": -3.4421678,
  "tags": {
    "addr:city": "Perros-Guirec",
    "addr:housenumber": "67",
    "addr:postcode": "22700",
    "addr:street": "Rue Anatole Le Braz",
    "brand:wikidata": "Q2904039",
    "bulk_purchase": "yes",
    "level": "0",
    "name": "Biocoop Douar Bihan",
    "operator": "Traou An Douar",
    "organic": "only",
    "phone": "+33 2 96 49 02 21",
    "shop": "supermarket",
    "website": "https://www.biocoop.fr/magasins-bio/Trouver-mon-magasin-Biocoop/Bretagne/Cotes-d-Armor/BIOCOOP-DOUAR-BIHAN",
    "wikipedia": "fr:Biocoop"
  }
},
{
  "type": "node",
  "id": 3957016050,
  "lat": 51.9625841,
  "lon": 7.6446395,
  "tags": {
    "addr:city": "Münster",
    "addr:country": "DE",
    "addr:housenumber": "63",
    "addr:postcode": "48145",
    "addr:street": "Warendorfer Straße",
    "bulk_purchase": "yes",
    "name": "natürlich unverpackt",
    "opening_hours": "Mo-Fr 09:00-19:00; Sa 09:00-15:00",
    "phone": "+4925139779720",
    "shop": "convenience",
    "website": "http://www.natuerlich-unverpackt.de",
    "wheelchair": "yes"
  }
},
{
  "type": "node",
  "id": 3966539215,
  "lat": 47.7349682,
  "lon": -3.4272291,
  "tags": {
    "addr:city": "Plœmeur",
    "addr:housenumber": "14",
    "addr:postcode": "56270",
    "addr:street": "Rue de Kervam",
    "brand": "La Vie Claire",
    "brand:wikidata": "Q3213589",
    "brand:wikipedia": "fr:La Vie claire",
    "bulk_purchase": "yes",
    "name": "La Vie Claire",
    "opening_hours": "Mo 14:30-19:00; Tu-Sa 09:00-12:30,14:30-19:00; Su 10:30-12:30",
    "organic": "only",
    "shop": "supermarket",
    "source": "survey",
    "website": "http://www.lavieclaire.com/magasin-bio/ploemeur-lorient.html"
  }
},
{
  "type": "node",
  "id": 4005325028,
  "lat": 43.7592187,
  "lon": 1.3003800,
  "tags": {
    "addr:city": "Grenade",
    "addr:housenumber": "132",
    "addr:postcode": "31330",
    "addr:street": "Route de Toulouse",
    "bulk_purchase": "yes",
    "name": "Biocoop Vivez Nature",
    "opening_hours": "Mo 15:00 -19:30; Tu-Th 09:30-13:00,15:00-19:30; Fr 09:30-19:30; Sa 09:30-19:00",
    "organic": "only",
    "phone": "+33 5 62 79 59 48",
    "shop": "supermarket",
    "website": "http://www.viveznaturegrenade-biocoop.com/"
  }
},
{
  "type": "node",
  "id": 4031498771,
  "lat": 48.3973260,
  "lon": -4.4762604,
  "tags": {
    "addr:city": "Brest",
    "addr:housenumber": "3",
    "addr:postcode": "29200",
    "addr:street": "Rue Kerfautras",
    "brand:wikidata": "Q2904039",
    "brand:wikipedia": "fr:Biocoop",
    "bulk_purchase": "yes",
    "contact:email": "contact@finisterra.fr",
    "contact:fax": "+33 2 98 43 45 91",
    "email": "contact@finisterra.fr",
    "name": "Biocoop",
    "opening_hours": "Mo 15:00-19:00; Tu-Sa 09:00-13:00,14:30-19:00",
    "operator": "Finis Terra",
    "organic": "only",
    "phone": "+33 2 98 46 45 81",
    "shop": "supermarket",
    "website": "https://www.finisterra.fr/"
  }
},
{
  "type": "node",
  "id": 4037785465,
  "lat": 48.1070402,
  "lon": -1.6712595,
  "tags": {
    "addr:city": "Rennes",
    "addr:housenumber": "30",
    "addr:postcode": "35000",
    "addr:street": "Rue Saint-Hélier",
    "bulk_purchase": "only",
    "contact:email": "daybyday.rennes@gmail.com",
    "name": "Day by day",
    "phone": "+33 9 67 55 09 15",
    "shop": "convenience",
    "website": "http://daybyday-shop.com"
  }
},
{
  "type": "node",
  "id": 4070135011,
  "lat": 48.7345955,
  "lon": -3.4453223,
  "tags": {
    "addr:city": "Lannion",
    "addr:postcode": "22300",
    "addr:street": "Rond-Point Saint-Marc",
    "brand:website": "https://www.biocoop.fr",
    "brand:wikidata": "Q2904039",
    "brand:wikipedia": "fr:Biocoop",
    "bulk_purchase": "yes",
    "level": "0",
    "name": "Biocoop Douargann",
    "opening_hours": "Tu-Sa 09:30-19:00, Mo 14:00-19:00",
    "operator": "Traou An Douar",
    "organic": "only",
    "phone": "+33 2 96 14 01 06",
    "shop": "supermarket",
    "website": "https://www.biocoop.fr/magasins-bio/Trouver-mon-magasin-Biocoop/Bretagne/Cotes-d-Armor/BIOCOOP-DOUARGANN"
  }
},
{
  "type": "node",
  "id": 4115057889,
  "lat": 47.3479337,
  "lon": -0.7592496,
  "tags": {
    "addr:city": "Chalonnes-sur-Loire",
    "addr:housenumber": "3",
    "addr:postcode": "49290",
    "addr:street": "Allée des Treilles",
    "bulk_purchase": "yes",
    "name": "Biocoop Symbiose",
    "organic": "only",
    "shop": "supermarket",
    "website": "http://www.biocoop-symbiose.fr"
  }
},
{
  "type": "node",
  "id": 4174996436,
  "lat": 48.5346459,
  "lon": -2.7554529,
  "tags": {
    "addr:city": "Plérin",
    "addr:housenumber": "5",
    "addr:postcode": "22190",
    "addr:street": "Rue de la Croix Lormel",
    "bulk_purchase": "yes",
    "contact:website": "http://lagambille.biocoop.net/",
    "name": "La Gambille",
    "operator": "Biocoop",
    "organic": "only",
    "shop": "supermarket",
    "website": "http://lagambille.biocoop.net"
  }
},
{
  "type": "node",
  "id": 4194827018,
  "lat": 43.8699278,
  "lon": -0.4904540,
  "tags": {
    "bulk_purchase": "yes",
    "name": "Le Marché de Léopold",
    "organic": "only",
    "shop": "supermarket",
    "source": "cadastre-dgi-fr source : Direction Générale des Impôts - Cadastre. Mise à jour : 2016"
  }
},
{
  "type": "node",
  "id": 4199637816,
  "lat": 47.2211715,
  "lon": -1.5578118,
  "tags": {
    "addr:city": "Nantes",
    "addr:postcode": "44000",
    "addr:street": "Rue Basse Porte",
    "name": "Talensac Marée",
    "shop": "seafood"
  }
},
{
  "type": "node",
  "id": 4201236594,
  "lat": 47.2211701,
  "lon": -1.5580034,
  "tags": {
    "addr:city": "Nantes",
    "addr:postcode": "44000",
    "addr:street": "Rue Basse Porte",
    "name": "Boucherie Biologique Nantaise",
    "organic": "yes",
    "shop": "butcher"
  }
},
{
  "type": "node",
  "id": 4201236610,
  "lat": 47.2212685,
  "lon": -1.5582387,
  "tags": {
    "addr:city": "Nantes",
    "addr:postcode": "44000",
    "addr:street": "Rue Basse Porte",
    "name": "Les Délices de Provence",
    "origin": "mediterranean",
    "shop": "deli"
  }
},
{
  "type": "node",
  "id": 4201925356,
  "lat": 49.7627515,
  "lon": 6.6491800,
  "tags": {
    "addr:city": "Trier",
    "addr:country": "DE",
    "addr:housenumber": "65",
    "addr:postcode": "54292",
    "addr:street": "Paulinstraße",
    "bulk_purchase": "yes",
    "name": "unverpackt Trier",
    "opening_hours": "Mo-Fr 09:00-19:00; Sa 10:00-16:00",
    "shop": "convenience",
    "website": "www.unverpackt-trier.de",
    "wheelchair": "yes"
  }
},
{
  "type": "node",
  "id": 4217628493,
  "lat": 44.8178107,
  "lon": -0.5291868,
  "tags": {
    "addr:city": "Floirac",
    "addr:postcode": "33270",
    "addr:street": "Rue de la Gabarre",
    "bulk_purchase": "yes",
    "contact:phone": "+33 5 57 71 81 01",
    "currency:XLT": "MIEL",
    "name": "Biocoop Bouliac",
    "opening_hours": "Mo 10:30-19:30; Tu-Sa 09:30-19:30",
    "organic": "only",
    "payment:cash:XLT-MIEL": "yes",
    "shop": "convenience",
    "website": "http://www.biocoopbouliac.com/"
  }
},
{
  "type": "node",
  "id": 4267907899,
  "lat": 47.3244071,
  "lon": -2.4109019,
  "tags": {
    "addr:city": "Guérande",
    "addr:postcode": "44350",
    "addr:street": "Rue de la Briquerie",
    "bulk_purchase": "yes",
    "name": "Les Hameaux Bio Biocoop Guérande",
    "opening_hours": "Mo-Sa 09:30-19:15; Su off",
    "operator": "Biocoop",
    "organic": "only",
    "shop": "supermarket",
    "website": "http://www.leshameauxbio.fr/nos-magasins/gu%C3%A9rande/"
  }
},
{
  "type": "node",
  "id": 4273599297,
  "lat": 47.7658256,
  "lon": -3.4021587,
  "tags": {
    "addr:city": "Lorient",
    "addr:housenumber": "2",
    "addr:postcode": "56100",
    "addr:street": "Rue Saint-Exupéry",
    "brand": "Biocoop",
    "brand:wikidata": "Q2904039",
    "brand:wikipedia": "fr:Biocoop",
    "bulk_purchase": "yes",
    "name": "Biocoop Les 7 Épis",
    "opening_hours": "Mo-Sa 09:30-19:00",
    "operator": "Les 7 Épis",
    "organic": "only",
    "phone": "+33 2 97 37 58 92",
    "shop": "supermarket",
    "start_date": "2016-07-08 12:00",
    "website": "https://www.les7epis.fr/",
    "wheelchair": "yes"
  }
},
{
  "type": "node",
  "id": 4273736092,
  "lat": 47.7498415,
  "lon": -3.3631879,
  "tags": {
    "addr:city": "Lorient",
    "addr:housenumber": "7",
    "addr:postcode": "56100",
    "addr:street": "Rue Vauban",
    "brand": "Biocoop",
    "brand:wikidata": "Q2904039",
    "brand:wikipedia": "fr:Biocoop",
    "bulk_purchase": "yes",
    "name": "Biocoop Les 7 Epis",
    "operator": "Les 7 Épis",
    "organic": "only",
    "phone": "+33 2 97 80 12 00",
    "shop": "supermarket",
    "start_date": "2016-06-17",
    "website": "www.les7epis.fr",
    "wheelchair": "yes"
  }
},
{
  "type": "node",
  "id": 4278058390,
  "lat": 47.4666423,
  "lon": -0.5524444,
  "tags": {
    "addr:city": "Angers",
    "addr:housenumber": "59",
    "addr:postcode": "49100",
    "addr:street": "Boulevard du Maréchal Foch",
    "bulk_purchase": "yes",
    "name": "Biocoop Caba",
    "organic": "only",
    "shop": "supermarket",
    "website": "http://biocoop-caba.fr/"
  }
},
{
  "type": "node",
  "id": 4288636890,
  "lat": 48.5135634,
  "lon": -2.7625306,
  "tags": {
    "addr:city": "Saint-Brieuc",
    "addr:housenumber": "2",
    "addr:postcode": "22000",
    "addr:street": "Rue Michelet",
    "bulk_purchase": "yes",
    "name": "Biocoop La Gambille",
    "organic": "only",
    "phone": "+33 2 96 70 00 74",
    "shop": "supermarket",
    "website": "http://lagambille.biocoop.net/"
  }
},
{
  "type": "node",
  "id": 4325221209,
  "lat": 43.3470333,
  "lon": 5.4515082,
  "tags": {
    "addr:city": "Marseille",
    "addr:housenumber": "135",
    "addr:postcode": "13013",
    "addr:street": "Boulevard Bara",
    "bulk_purchase": "yes",
    "name": "Biocoop Chateau Gombert",
    "operator": "Biocoop",
    "organic": "only",
    "shop": "supermarket",
    "website": "http://biocoop.fr/magasins-bio/Trouver-mon-magasin-Biocoop/Provence-Alpes-Cote-d-Azur/Bouches-du-Rhone/BIOCOOP-CHATEAU-GOMBERT"
  }
},
{
  "type": "node",
  "id": 4333559706,
  "lat": 45.1262098,
  "lon": -0.6415055,
  "tags": {
    "addr:city": "Cars",
    "addr:housenumber": "3",
    "addr:postcode": "33390",
    "addr:street": "Rue des Cabernets",
    "bulk_purchase": "yes",
    "name": "Biocoop de l'estuaire",
    "organic": "only",
    "shop": "supermarket",
    "website": "http://www.biocoop-estuaire.com/"
  }
},
{
  "type": "node",
  "id": 4343680507,
  "lat": 44.9156724,
  "lon": 4.8852540,
  "tags": {
    "addr:city": "Valence",
    "addr:housenumber": "333",
    "addr:postcode": "26000",
    "addr:street": "Avenue Victor Hugo",
    "bulk_purchase": "yes",
    "level": "0",
    "name": "Biocoop",
    "opening_hours": "Mo 15:30-20:00; Tu-Th 09:00-13:00,15:30-20:00; Fr 09:00-20:00; Sa 09:00-19:30",
    "organic": "only",
    "phone": "+33 9 67 11 69 46",
    "shop": "supermarket",
    "website": "http://valence.biocoop.net/",
    "wheelchair": "yes"
  }
},
{
  "type": "node",
  "id": 4394780789,
  "lat": 47.2152113,
  "lon": -1.5532362,
  "tags": {
    "addr:city": "Nantes",
    "addr:housenumber": "6",
    "addr:postcode": "44000",
    "addr:street": "Rue de la Bâclerie",
    "name": "Sophie Backery",
    "name:fr": "Sophie Backery",
    "shop": "pastry"
  }
},
{
  "type": "node",
  "id": 4396149089,
  "lat": 47.2172562,
  "lon": -1.5574106,
  "tags": {
    "addr:city": "Nantes",
    "addr:housenumber": "23",
    "addr:postcode": "44000",
    "addr:street": "Allée d'Orléans",
    "brand": "Naturalia",
    "brand:wikidata": "Q3337081",
    "brand:wikipedia": "fr:Naturalia",
    "bulk_purchase": "yes",
    "contact:phone": "+33 2 40357540",
    "description": "Épicerie biologique et naturelle",
    "highway": "crossing",
    "name": "Naturalia",
    "opening_hours": "Mo-Sa 09:00-20:00; Su 09:00-13:30",
    "organic": "only",
    "shop": "convenience",
    "website": "https://magasins.naturalia.fr/produits-bio/nantes/3954/",
    "wheelchair": "yes"
  }
},
{
  "type": "node",
  "id": 4403685200,
  "lat": 47.0572765,
  "lon": 6.6136589,
  "tags": {
    "addr:city": "Morteau",
    "addr:housenumber": "5",
    "addr:postcode": "25500",
    "addr:street": "Chemin des Pierres",
    "bulk_purchase": "yes",
    "name": "Biocoop Le refuge des saveurs",
    "organic": "only",
    "shop": "supermarket",
    "website": "https://www.google.com/url?https://fr-fr.facebook.com/biocooplerefugedessaveurs/sg=AOvVaw0XAxskgSUO2w0Er40Ae4V6"
  }
},
{
  "type": "node",
  "id": 4416898146,
  "lat": 47.2337591,
  "lon": -1.5859370,
  "tags": {
    "addr:city": "Saint-Herblain",
    "addr:housenumber": "34",
    "addr:postcode": "44800",
    "addr:street": "Rue des Plantes",
    "bulk_purchase": "yes",
    "name": "Chlorophylle Beauséjour",
    "opening_hours": "Mo-Sa 09:00-19:30; Su off",
    "organic": "only",
    "shop": "supermarket",
    "website": "http://www.chlorophylle-coop.com/"
  }
},
{
  "type": "node",
  "id": 4416911931,
  "lat": 47.1919208,
  "lon": -1.5824362,
  "tags": {
    "addr:city": "Rezé",
    "addr:housenumber": "18",
    "addr:postcode": "44400",
    "addr:street": "Rue Ordronneau",
    "bulk_purchase": "yes",
    "name": "Chlorophylle Beausud",
    "opening_hours": "Mo-Sa 09:00-19:30; Su off",
    "organic": "only",
    "shop": "supermarket",
    "website": "http://www.chlorophylle-coop.com/"
  }
},
{
  "type": "node",
  "id": 4436466656,
  "lat": 43.9540188,
  "lon": 2.8936953,
  "tags": {
    "addr:city": "Saint-Affrique",
    "addr:housenumber": "101",
    "addr:postcode": "12400",
    "addr:street": "Avenue Jean Jaurès",
    "bulk_purchase": "yes",
    "contact:website": "http://www.biocoop.fr/magasins-bio/Trouver-mon-magasin-Biocoop/Languedoc-Roussillon-Midi-Pyrenees/Aveyron/LOU-CUSSOU",
    "name": "Biocoop - Lou Cussou",
    "organic": "only",
    "shop": "supermarket",
    "source": "survey 2016",
    "website": "https://www.biocoop.fr/magasins-bio/Trouver-mon-magasin-Biocoop/Occitanie2/Aveyron/LOU-CUSSOU"
  }
},
{
  "type": "node",
  "id": 4470188430,
  "lat": 47.8550959,
  "lon": -4.2435909,
  "tags": {
    "addr:city": "Pont-l'Abbé",
    "addr:postcode": "29120",
    "addr:street": "Route de Plomeur",
    "brand:wikidata": "Q2904039",
    "brand:wikipedia": "fr:Biocoop",
    "bulk_purchase": "yes",
    "name": "Biocoop",
    "operator": "Graine de Bio",
    "organic": "only",
    "phone": "+33 2 98 66 16 72",
    "shop": "supermarket",
    "website": "http://grainedebio.biocoop.net"
  }
},
{
  "type": "node",
  "id": 4472343487,
  "lat": 46.1075591,
  "lon": -1.1004666,
  "tags": {
    "addr:city": "Angoulins",
    "addr:postcode": "17690",
    "addr:street": "Avenue Albert Denis",
    "bulk_purchase": "yes",
    "name": "Biocoop La Rochelle Sud",
    "organic": "only",
    "shop": "supermarket",
    "website": "http://larochelle-sud.biocoop.net/"
  }
},
{
  "type": "node",
  "id": 4485472186,
  "lat": 48.1240322,
  "lon": -1.2094988,
  "tags": {
    "addr:city": "Vitré",
    "addr:housenumber": "1",
    "addr:postcode": "35500",
    "addr:street": "Rue de la Borderie",
    "bulk_purchase": "only",
    "name": "Mamie mesure",
    "organic": "yes",
    "shop": "convenience",
    "website": "https://mamiemesure.fr/"
  }
},
{
  "type": "node",
  "id": 4499730098,
  "lat": 47.2800523,
  "lon": -2.2156298,
  "tags": {
    "addr:city": "Saint-Nazaire",
    "addr:country": "FR",
    "addr:housenumber": "89",
    "addr:postcode": "44600",
    "addr:street": "Rue Jean Jaurès",
    "bulk_purchase": "yes",
    "name": "Les Hameaux Bio Biocoop Saint-Nazaire",
    "opening_hours": "Mo-Th 08:30-12:30, 14:30-19:15; Fr-Sa 08:30-19:15; Su off",
    "organic": "yes",
    "shop": "convenience",
    "website": "http://www.leshameauxbio.fr/magasins/o%C3%B9-sommes-nous/saint-nazaire/"
  }
},
{
  "type": "node",
  "id": 4510281883,
  "lat": 45.9729539,
  "lon": 5.3522790,
  "tags": {
    "addr:city": "Ambérieu-en-Bugey",
    "addr:housenumber": "186",
    "addr:postcode": "01500",
    "addr:street": "Rue Alexandre Bérard",
    "brand:wikidata": "Q2904039",
    "brand:wikipedia": "fr:Biocoop",
    "bulk_purchase": "yes",
    "name": "Biocoop",
    "opening_hours": "Mo-Sa 09:00-19:00",
    "operator": "Le Vert de Terre",
    "organic": "only",
    "phone": "+33 4 74 34 63 51",
    "shop": "supermarket",
    "website": "http://www.le-vert-de-terre.fr/"
  }
},
{
  "type": "node",
  "id": 4511623665,
  "lat": 43.6131122,
  "lon": 6.9705875,
  "tags": {
    "addr:city": "Mouans-Sartoux",
    "addr:housenumber": "609",
    "addr:postcode": "06370",
    "addr:street": "Route de la Roquette",
    "brand:wikidata": "Q2904039",
    "brand:wikipedia": "fr:Biocoop",
    "bulk_purchase": "yes",
    "name": "Biocoop Méditerranée",
    "operator": "Loïc Poillion, Patrick Louvet",
    "organic": "only",
    "phone": "+33 4 92991268",
    "shop": "supermarket",
    "source": "survey",
    "website": "http://www.biocoop.fr/magasins-bio/Trouver-mon-magasin-Biocoop/Provence-Alpes-Cote-d-Azur/Alpes-Maritimes/BIOCOOP-MEDITERRANEE",
    "wheelchair": "yes"
  }
},
{
  "type": "node",
  "id": 4512774457,
  "lat": 48.6831223,
  "lon": 6.1718647,
  "tags": {
    "addr:housenumber": "95",
    "bulk_purchase": "yes",
    "contact:facebook": "https://www.facebook.com/Le-Gramme-de-Folie-Nancy-1456223781079103/",
    "email": "legrammedefolie@bbox.fr",
    "name": "Le Gramme de Folie",
    "opening_hours": "Tu-Fr 10:00-13:00,15:00-19:00; Sa 10:00-19:00",
    "organic": "yes",
    "phone": "+33 9 86 20 75 29",
    "shop": "convenience",
    "source": "cadastre-dgi-fr source : Direction Générale des Impôts - Cadastre. Mise à jour : 2016",
    "wheelchair": "no"
  }
},
{
  "type": "node",
  "id": 4519639961,
  "lat": 44.8769720,
  "lon": 1.2101557,
  "tags": {
    "addr:city": "Sarlat-la-Canéda",
    "addr:postcode": "24200",
    "addr:street": "Route du Bugue",
    "brand": "Biocoop",
    "bulk_purchase": "yes",
    "currency:XLT": "COPK",
    "name": "Biocoop Sarlat",
    "opening_hours": "Mo 15:00-19:00; Tu-Fr 09:30-12:30,15:00-19:00; Sa 09:30-19:00",
    "organic": "only",
    "payment:cash:XLT-COPK": "yes",
    "phone": "+33 5 53 59 03 10",
    "ref:FR:NAF": "4711B",
    "ref:FR:SIRET": "80939552800015",
    "shop": "convenience",
    "website": "http://www.biocoopsarlat.fr"
  }
},
{
  "type": "node",
  "id": 4519639962,
  "lat": 43.6034323,
  "lon": 1.0694684,
  "tags": {
    "addr:city": "L'Isle-Jourdain",
    "addr:postcode": "32600",
    "addr:street": "ZA du Pont Peyrin",
    "brand": "Biocoop",
    "bulk_purchase": "yes",
    "currency:XLT": "COPK",
    "name": "Entre Terre et Ciel",
    "organic": "only",
    "payment:cash:XLT-COPK": "yes",
    "phone": "+33 5 62 59 20 15",
    "ref:FR:NAF": "4729Z",
    "ref:FR:SIRET": "81169880200014",
    "shop": "supermarket",
    "website": "http://www.biocoop-ecet.com/"
  }
},
{
  "type": "node",
  "id": 4526138028,
  "lat": 48.8900868,
  "lon": 2.1973952,
  "tags": {
    "bulk_purchase": "only",
    "name": "Day by Day",
    "opening_hours": "Tu-Su 09:30-13:30, Tu-Sa 15:30-19:30",
    "operator": "Day by Day",
    "shop": "convenience",
    "source": "survey 2017",
    "website": "http://daybyday-shop.com/vrac-nanterre.html",
    "wheelchair": "yes"
  }
},
{
  "type": "node",
  "id": 4598296543,
  "lat": 48.5803297,
  "lon": 7.7576726,
  "tags": {
    "bulk_purchase": "only",
    "description": "épicerie de produits en vrac",
    "name": "Le Bocal",
    "opening_hours": "Tu-Fr 10:00-19:00, 09:00-18:00; Sa 10:00-17:00",
    "organic": "yes",
    "phone": "+33 3 88 36 70 61",
    "shop": "convenience",
    "source": "survey",
    "wheelchair": "limited"
  }
},
{
  "type": "node",
  "id": 4611187790,
  "lat": 48.8574452,
  "lon": -0.8730951,
  "tags": {
    "addr:city": "Vire",
    "addr:housenumber": "550",
    "addr:postcode": "14500",
    "addr:street": "Avenue de Bischwiller",
    "brand:wikidata": "Q2904039",
    "bulk_purchase": "yes",
    "name": "Biocoop du Bocage",
    "operator": "Biocoop",
    "organic": "only",
    "phone": "+33 2 31 09 47 85",
    "shop": "supermarket",
    "website": "http://www.biocoop-vire.com",
    "wikipedia": "fr:Biocoop"
  }
},
{
  "type": "node",
  "id": 4614366023,
  "lat": 43.6977835,
  "lon": 7.2653639,
  "tags": {
    "addr:city": "Nice",
    "addr:housenumber": "2",
    "addr:postcode": "06000",
    "addr:street": "Place Grimaldi",
    "bulk_purchase": "yes",
    "description": "Magasin bio, snack bio",
    "name": "Biocoop Nice Grimaldi",
    "opening_hours": "Mo-Sa 09:30-19:30",
    "shop": "supermarket",
    "website": "https://www.instagram.com/biocoopnicegrimaldi"
  }
},
{
  "type": "node",
  "id": 4620360223,
  "lat": 48.5657412,
  "lon": 7.7590243,
  "tags": {
    "bulk_purchase": "only",
    "contact:website": "http://daybyday-shop.com/magasin/strasbourg",
    "name": "Day by Day",
    "opening_hours": "Tu-Fr 09:30-13:00, 15:00-19:30; Sa 08:30-13:00, 15:00-18:30",
    "organic": "yes",
    "ref:FR:SIRET": "81847068400015",
    "shop": "convenience",
    "source": "survey",
    "wheelchair": "no"
  }
},
{
  "type": "node",
  "id": 4627896622,
  "lat": 48.1110887,
  "lon": -1.6930689,
  "tags": {
    "addr:city": "Rennes",
    "addr:housenumber": "18",
    "addr:postcode": "35000",
    "addr:street": "Rue Papu",
    "brand:wikipedia": "fr:Biocoop",
    "bulk_purchase": "yes",
    "name": "Biocoop Scarabée Papu",
    "opening_hours": "Mo-Sa 09:30-19:30",
    "operator": "Société coopérative d'alimentation rennaise biologique et écologique",
    "organic": "only",
    "payment:cash": "yes",
    "payment:credit_cards": "yes",
    "payment:debit_cards": "yes",
    "phone": "+33 2 23 22 29 09",
    "shop": "supermarket",
    "source": "http://www.ouest-france.fr/bretagne/rennes-35000/commerce-scarabee-biocoop-ouvre-un-7e-magasin-rennes-4754670",
    "start_date": "2017-02-01",
    "website": "http://www.scarabee-biocoop.fr",
    "wheelchair": "yes"
  }
},
{
  "type": "node",
  "id": 4645154445,
  "lat": 48.3866586,
  "lon": -4.5321039,
  "tags": {
    "addr:city": "Brest",
    "addr:housenumber": "114",
    "addr:postcode": "29200",
    "addr:street": "Boulevard de Plymouth",
    "brand:wikidata": "Q2904039",
    "bulk_purchase": "yes",
    "contact:email": "contact@finisterra.fr",
    "contact:fax": "+33 2 98 45 78 93",
    "email": "contact@finisterra.fr",
    "name": "Biocoop Kerbio",
    "operator": "Finis Terra",
    "organic": "only",
    "phone": "+33 2 98 45 45 28",
    "shop": "supermarket",
    "website": "http://www.finisterra.fr",
    "wikipedia": "fr:Biocoop"
  }
},
{
  "type": "node",
  "id": 4657132729,
  "lat": 47.0865666,
  "lon": -1.2623221,
  "tags": {
    "addr:city": "Gétigné",
    "addr:postcode": "44190",
    "bulk_purchase": "yes",
    "name": "Naturéo",
    "opening_hours": "Mo-Sa 09:30-19:30; Su off",
    "organic": "only",
    "shop": "convenience",
    "website": "http://natureo-bio.fr/magasin-getigne"
  }
},
{
  "type": "node",
  "id": 4688545391,
  "lat": 50.6266853,
  "lon": 3.0477330,
  "tags": {
    "bulk_purchase": "only",
    "contact:phone": "+33 3 20 07 62 93",
    "contact:website": "http://daybyday-shop.com/magasin/lille",
    "description": "mon épicerie en vrac",
    "name": "Day by Day",
    "opening_hours": "Tu-Sa 09:30-13:00,15:00-19:30, Su 09:25-13:30",
    "operator": "Day by Day",
    "shop": "convenience"
  }
},
{
  "type": "node",
  "id": 4688555892,
  "lat": 49.1152428,
  "lon": 6.1785568,
  "tags": {
    "bulk_purchase": "only",
    "contact:phone": "+33 3 72 39 54 22",
    "contact:website": "http://daybyday-shop.com/magasin/metz",
    "description": "Epicerie en vrac sans emballage. Produit alimentaire, vin, cosmétique et droguerie",
    "name": "Day by Day",
    "opening_hours": "Tu-Fr 09:30-13:30,15:00-19:00; Sa 09:30-19:00; Su 09:30-12:00",
    "operator": "Day by Day",
    "organic": "yes",
    "shop": "convenience"
  }
},
{
  "type": "node",
  "id": 4706441746,
  "lat": 47.4899090,
  "lon": -0.5343097,
  "tags": {
    "addr:city": "Angers",
    "addr:housenumber": "50",
    "addr:postcode": "49100",
    "addr:street": "Boulevard du Doyenné",
    "bulk_purchase": "yes",
    "name": "Biocoop CABA",
    "operator": "CABA",
    "organic": "only",
    "shop": "supermarket",
    "website": "http://biocoop-caba.fr/",
    "wheelchair": "limited"
  }
},
{
  "type": "node",
  "id": 4716617867,
  "lat": 43.1071771,
  "lon": 1.6288351,
  "tags": {
    "addr:city": "Pamiers",
    "addr:housenumber": "1",
    "addr:postcode": "09100",
    "addr:street": "Rue André Citroën",
    "bulk_purchase": "yes",
    "name": "Biocoop Les Myrtilles",
    "organic": "only",
    "shop": "supermarket",
    "website": "http://biocoop.fr/magasins-bio/Trouver-mon-magasin-Biocoop/Occitanie2/Ariege/BIOCOOP-LES-MYRTILLES"
  }
},
{
  "type": "node",
  "id": 4750862440,
  "lat": 47.2650899,
  "lon": -1.4876903,
  "tags": {
    "addr:city": "Sainte-Luce-sur-Loire",
    "addr:housenumber": "13",
    "addr:postcode": "44980",
    "addr:street": "Rue Denis Papin",
    "bulk_purchase": "yes",
    "name": "Chlorophylle - Bio Luce",
    "opening_hours": "Mo-Sa 09:00-19:30",
    "operator": "Chlorophylle",
    "organic": "only",
    "shop": "supermarket",
    "website": "http://www.chlorophylle-coop.com"
  }
},
{
  "type": "node",
  "id": 4767931521,
  "lat": 47.6730375,
  "lon": -2.4511428,
  "tags": {
    "addr:city": "Questembert",
    "addr:postcode": "56230",
    "addr:street": "Rue du Maguéro",
    "bulk_purchase": "yes",
    "email": "halleterrenative@hotmail.fr",
    "name": "L'Halle Terre Native",
    "name:fr": "L'Halle Terre Native",
    "opening_hours": "Tu, Th-Fr 09:30-12:30, 14:00-19:00; Sa 09:30-13:00, 15:00-18:30",
    "organic": "yes",
    "phone": "+33297010957",
    "shop": "convenience",
    "website": "https://www.facebook.com/halleterrenative/"
  }
},
{
  "type": "node",
  "id": 4769733116,
  "lat": 48.1064092,
  "lon": -1.6684960,
  "tags": {
    "addr:city": "Rennes",
    "addr:housenumber": "66",
    "addr:postcode": "35000",
    "addr:street": "Rue Saint-Hélier",
    "bulk_purchase": "yes",
    "delivery": "yes",
    "drive_through": "no",
    "email": "coqcinelle@laposte.net",
    "name": "Coqcinelle",
    "operator": "James Johney",
    "organic": "only",
    "phone": "+33 6 23 64 73 36",
    "shop": "supermarket",
    "website": "http://coqcinelle.fr",
    "wheelchair": "no"
  }
},
{
  "type": "node",
  "id": 4771481817,
  "lat": 49.0268918,
  "lon": 1.1807332,
  "tags": {
    "addr:city": "Évreux",
    "addr:housenumber": "1",
    "addr:postcode": "27000",
    "addr:street": "Rue Jacques Monod",
    "brand:wikidata": "Q2904039",
    "bulk_purchase": "yes",
    "delivery": "yes",
    "drive_through": "no",
    "email": "animation@bioevreux.fr",
    "name": "Biocoop",
    "operator": "Biocoop Évreux",
    "organic": "only",
    "phone": "+33 2 32 31 13 72",
    "shop": "supermarket",
    "website": "http://www.biocoop-evreux.fr",
    "wheelchair": "yes",
    "wikipedia": "fr:Biocoop"
  }
},
{
  "type": "node",
  "id": 4784308455,
  "lat": 48.0300899,
  "lon": -1.7591600,
  "tags": {
    "addr:city": "Bruz",
    "addr:housenumber": "5",
    "addr:postcode": "35170",
    "addr:street": "Rue de Gavrinis",
    "brand:wikipedia": "fr:Biocoop",
    "bulk_purchase": "yes",
    "email": "magasin.bruz@scarabee-biocoop.fr",
    "name": "Biocoop Scarabée Bruz",
    "name_1": "Scarabée Biocoop",
    "operator": "Société coopérative d'alimentation rennaise biologique et écologique",
    "organic": "only",
    "phone": "+33 2 57 87 15 32",
    "shop": "supermarket",
    "website": "http://www.scarabee-biocoop.fr",
    "wheelchair": "yes"
  }
},
{
  "type": "node",
  "id": 4786186872,
  "lat": 44.1858623,
  "lon": 5.9478285,
  "tags": {
    "addr:city": "Sisteron",
    "addr:housenumber": "52",
    "addr:postcode": "04200",
    "addr:street": "Avenue Jean Jaurès",
    "bulk_purchase": "yes",
    "change:XLT-ROUE": "yes",
    "currency:XLT": "ROUE",
    "name": "Biocoop Sisteron",
    "opening_hours": "Mo 14:30-19:00, Tu-Fr 09:00-13:00 14:30-19:00, Sa 09:00-19:00",
    "organic": "only",
    "shop": "supermarket",
    "website": "http://sisteron.biocoop.net/"
  }
},
{
  "type": "node",
  "id": 4829754273,
  "lat": 47.2143194,
  "lon": -1.5634232,
  "tags": {
    "addr:city": "Nantes",
    "addr:housenumber": "7",
    "addr:postcode": "44000",
    "addr:street": "Rue Franklin",
    "craft": "caterer",
    "name": "Brison",
    "opening_hours": "Mo-Sa 08:30-19:45; Su off",
    "phone": "+33 2 40 48 51 39",
    "website": "http://www.brisontraiteur.com/"
  }
},
{
  "type": "node",
  "id": 4868560094,
  "lat": 48.5824495,
  "lon": 7.7469604,
  "tags": {
    "branch": "Strasbourg marché aux grains",
    "brand": "Naturalia",
    "brand:wikidata": "Q3337081",
    "brand:wikipedia": "fr:Naturalia",
    "bulk_purchase": "yes",
    "contact:website": "http://magasins.naturalia.fr/produits-bio/strasbourg-marche-aux-grains/3921",
    "name": "Naturalia",
    "opening_hours": "Mo-Sa 09:00-20:00",
    "organic": "only",
    "ref:FR:SIRET": "30247464801704",
    "shop": "supermarket",
    "source": "survey",
    "wheelchair": "yes"
  }
},
{
  "type": "node",
  "id": 4876799495,
  "lat": 48.0712751,
  "lon": -0.7503965,
  "tags": {
    "addr:city": "Laval",
    "addr:housenumber": "28",
    "addr:postcode": "53000",
    "addr:street": "Boulevard de l'Industrie",
    "bulk_purchase": "yes",
    "email": "lavalest@biocoopmbs53.fr",
    "name": "Biocoop Laval Est",
    "opening_hours": "Mo-Fr 09:30-19:00; Sa 09:00-19:00",
    "organic": "only",
    "phone": "+33 2 43 67 92 30",
    "shop": "supermarket",
    "website": "http://mayennebiosoleil.biocoop.net/"
  }
},
{
  "type": "node",
  "id": 4897473688,
  "lat": 47.6478646,
  "lon": -2.7068504,
  "tags": {
    "addr:city": "Theix-Noyalo",
    "addr:housenumber": "4",
    "addr:postcode": "56450",
    "addr:street": "Rue Jacques Cartier",
    "bulk_purchase": "yes",
    "name": "Bio Golfe Theix",
    "organic": "only",
    "shop": "supermarket",
    "website": "http://www.biogolfe.org/bio-golfe-theix/"
  }
},
{
  "type": "node",
  "id": 4911467953,
  "lat": 43.6408244,
  "lon": 5.0972613,
  "tags": {
    "bulk_purchase": "only",
    "name": "Autrement Vrac",
    "opening_hours": "Tu-Sa 09:30-12:30,14:30-19:00",
    "organic": "only",
    "shop": "supermarket",
    "website": "http://www.autrementvrac.fr/"
  }
},
{
  "type": "node",
  "id": 4917847921,
  "lat": 47.2207118,
  "lon": -1.5486393,
  "tags": {
    "addr:city": "Nantes",
    "addr:housenumber": "66",
    "addr:postcode": "44000",
    "addr:street": "Rue Maréchal Joffre",
    "amenity": "restaurant",
    "cuisine": "asian",
    "name": "Thaigan",
    "name:fr": "Thaigan",
    "takeaway": "yes",
    "website": "https://www.facebook.com/thaigannantes/"
  }
},
{
  "type": "node",
  "id": 4922966775,
  "lat": 44.8520274,
  "lon": -0.5727160,
  "tags": {
    "addr:city": "Bordeaux",
    "addr:housenumber": "6",
    "addr:postcode": "33300",
    "addr:street": "Rue Sicard",
    "brand:wikipedia": "fr:Biocoop",
    "bulk_purchase": "yes",
    "currency:XLT": "MIEL",
    "name": "Biocoop",
    "opening_hours": "Mo 14:30-19:30; Tu-Th 10:00-14:00,15:00-19:30; Fr,Sa 10:00-19:30",
    "operator": "Merci la Terre",
    "organic": "only",
    "payment:cash:XLT-MIEL": "yes",
    "phone": "+33 5 56 58 46 07",
    "shop": "supermarket",
    "website": "http://biocoop.fr/magasins-bio/Trouver-mon-magasin-Biocoop/Nouvelle-Aquitaine2/Gironde/BIOCOOP-CHARTRONS"
  }
},
{
  "type": "node",
  "id": 4924026302,
  "lat": 43.5760481,
  "lon": 1.3487508,
  "tags": {
    "addr:city": "Tournefeuille",
    "addr:housenumber": "110",
    "addr:postcode": "31170",
    "addr:street": "Avenue du Marquisat",
    "bulk_purchase": "yes",
    "contact:housenumber": "110",
    "contact:phone": "+33 5 61 47 01 77",
    "currency:XLT": "SVLT",
    "name": "Biocoop La Ramée",
    "network": "Biocoop",
    "opening_hours": "Mo 15:00-19:30; Tu-Sa 09:00-19:30",
    "organic": "only",
    "payment:cash:XLT-SVLT": "yes",
    "shop": "supermarket",
    "website": "http://www.biocoop-laramee.com/"
  }
},
{
  "type": "node",
  "id": 4941395643,
  "lat": 46.5787429,
  "lon": 0.3203743,
  "tags": {
    "bulk_purchase": "only",
    "contact:website": "http://leffetbocal.over-blog.com",
    "name": "L’effet bocal",
    "opening_hours": "Tu-Sa 09:30-19:30",
    "shop": "convenience"
  }
},
{
  "type": "node",
  "id": 4951415548,
  "lat": 44.4282924,
  "lon": 5.7181098,
  "tags": {
    "addr:city": "Serres",
    "addr:housenumber": "7",
    "addr:postcode": "05700",
    "addr:street": "Rue Marius Meyère",
    "bulk_purchase": "yes",
    "name": "Biocoop",
    "organic": "only",
    "shop": "supermarket"
  }
},
{
  "type": "node",
  "id": 4962546028,
  "lat": 49.2761931,
  "lon": -0.6845764,
  "tags": {
    "addr:city": "Saint-Vigor-Le-Grand",
    "addr:postcode": "14400",
    "addr:street": "Chemin de la Blêtre",
    "bulk_purchase": "yes",
    "description": "Organic food store",
    "name": "Biocoop Olaf",
    "opening_hours": "Mo 14:30-19:00; Tu-Th 09:30-13:00, 14:30-19:00, 09:00-18:00; Fr, Sa 09:30-19:00",
    "organic": "only",
    "phone": "+33231102704",
    "shop": "convenience",
    "website": "http://www.biocoopolaf.com"
  }
},
{
  "type": "node",
  "id": 4972539171,
  "lat": 43.5970474,
  "lon": 1.4272468,
  "tags": {
    "bulk_purchase": "only",
    "name": "day by day",
    "shop": "convenience",
    "website": "http://daybyday-shop.com/magasin/toulouse"
  }
},
{
  "type": "node",
  "id": 4987972021,
  "lat": 48.5539431,
  "lon": -2.5449074,
  "tags": {
    "addr:city": "Saint-Alban",
    "addr:housenumber": "2",
    "addr:postcode": "22400",
    "addr:street": "Rue du Poirier - Le Pyrus",
    "bulk_purchase": "yes",
    "name": "Biocoop",
    "organic": "only",
    "shop": "convenience",
    "website": "http://lecourtilbio.biocoop.net/"
  }
},
{
  "type": "node",
  "id": 5007901395,
  "lat": 50.9480079,
  "lon": 6.9217112,
  "tags": {
    "addr:city": "Köln",
    "addr:housenumber": "270",
    "addr:postcode": "50823",
    "addr:street": "Venloer Straße",
    "bulk_purchase": "yes",
    "email": "post@veedelskraemer.de",
    "name": "Veedelskrämer",
    "opening_hours": "Mo-Fr 10:00-13:00,14:00-19:00; Sa 10:00-16:00",
    "phone": "+49 221 16893806",
    "shop": "convenience",
    "website": "https://www.veedelskraemer.de/",
    "wheelchair": "yes"
  }
},
{
  "type": "node",
  "id": 5010220778,
  "lat": 49.1175192,
  "lon": 6.1781779,
  "tags": {
    "branch": "Metz Saint Jacques",
    "brand": "Naturalia",
    "brand:wikidata": "Q3337081",
    "brand:wikipedia": "fr:Naturalia",
    "bulk_purchase": "yes",
    "contact:website": "https://magasins.naturalia.fr/produits-bio/metz-saint-jacques/3903",
    "indoor": "yes",
    "name": "Naturalia",
    "opening_hours": "Mo-Sa 09:00-19:30",
    "organic": "only",
    "shop": "convenience",
    "source": "survey",
    "survey:date": "2017-07"
  }
},
{
  "type": "node",
  "id": 5011237564,
  "lat": 44.0621528,
  "lon": 3.9734758,
  "tags": {
    "addr:city": "Anduze",
    "addr:housenumber": "5",
    "addr:postcode": "30140",
    "addr:street": "Chemin de Pierrascas",
    "bulk_purchase": "yes",
    "name": "Biocoop Anduze",
    "organic": "only",
    "shop": "supermarket",
    "website": "http://www.biocoopanduze.fr"
  }
},
{
  "type": "node",
  "id": 5016657224,
  "lat": 47.9970628,
  "lon": -4.1077757,
  "tags": {
    "addr:city": "Quimper",
    "addr:housenumber": "16",
    "addr:postcode": "29000",
    "addr:street": "Rue de la Providence",
    "bulk_purchase": "yes",
    "name": "Biocoop",
    "organic": "only",
    "shop": "supermarket",
    "website": "http://www.biocoop-quimper.fr",
    "wheelchair": "yes"
  }
},
{
  "type": "node",
  "id": 5025827521,
  "lat": 45.0555938,
  "lon": 1.1520615,
  "tags": {
    "addr:city": "Montignac",
    "addr:postcode": "24290",
    "addr:street": "Route des Eyzies",
    "bulk_purchase": "yes",
    "name": "Biocoop",
    "organic": "yes",
    "shop": "supermarket",
    "website": "http://www.biocoopmontignac.fr",
    "wheelchair": "yes"
  }
},
{
  "type": "node",
  "id": 5036979181,
  "lat": 49.4400551,
  "lon": 1.1022221,
  "tags": {
    "addr:city": "Rouen",
    "addr:housenumber": "48",
    "addr:postcode": "76000",
    "addr:street": "Rue Armand Carrel",
    "bulk_purchase": "only",
    "contact:email": "daybyday.rouen@gmail.com",
    "contact:phone": "+33 2 27 08 31 75",
    "contact:website": "http://daybyday-shop.com",
    "name": "Day by Day",
    "operator": "Terre et Saveur",
    "organic": "no",
    "shop": "convenience"
  }
},
{
  "type": "node",
  "id": 5042592599,
  "lat": 49.1027509,
  "lon": 1.4549129,
  "tags": {
    "addr:city": "Saint-Marcel",
    "addr:postcode": "27950",
    "addr:street": "Rue de la Garenne",
    "bulk_purchase": "yes",
    "name": "Biocoop",
    "organic": "only",
    "shop": "supermarket",
    "website": "https://www.biocoop-stmarcel.fr",
    "wheelchair": "yes"
  }
},
{
  "type": "node",
  "id": 5053854903,
  "lat": 47.2587736,
  "lon": -1.5012009,
  "tags": {
    "addr:city": "Nantes",
    "addr:housenumber": "19",
    "addr:postcode": "44300",
    "addr:street": "Rue du Marché Commun",
    "bulk_purchase": "yes",
    "description": "Alimentation biologique et éco-produits",
    "name": "Les Hameaux Bio Biocoop Nantes",
    "opening_hours": "Mo-Sa 09:30-19:30; Su off",
    "operator": "Biocoop",
    "organic": "only",
    "shop": "supermarket",
    "website": "http://www.leshameauxbio.fr/magasins/o%C3%B9-sommes-nous/nantes/"
  }
},
{
  "type": "node",
  "id": 5059888297,
  "lat": 45.9034157,
  "lon": 6.1268567,
  "tags": {
    "bulk_purchase": "yes",
    "name": "Biocoop Aquarius",
    "organic": "only",
    "shop": "convenience"
  }
},
{
  "type": "node",
  "id": 5066198364,
  "lat": 47.2112211,
  "lon": -1.6529343,
  "tags": {
    "addr:city": "Saint-Herblain",
    "addr:housenumber": "13",
    "addr:postcode": "44800",
    "addr:street": "Place de la Paix",
    "name": "Boucheries 44",
    "shop": "butcher"
  }
},
{
  "type": "node",
  "id": 5076538322,
  "lat": 43.8510856,
  "lon": 0.6556251,
  "tags": {
    "addr:city": "Fleurance",
    "addr:postcode": "32500",
    "addr:street": "Avenue d'Artagnan",
    "bulk_purchase": "yes",
    "contact:phone": "+33 5 62 64 00 02",
    "name": "Biocoop Fleurance",
    "network": "Biocoop",
    "organic": "only",
    "shop": "supermarket",
    "website": "http://www.biocoop-fleurance.com/"
  }
},
{
  "type": "node",
  "id": 5100862252,
  "lat": 49.1816626,
  "lon": -0.3603583,
  "tags": {
    "addr:city": "Caen",
    "addr:housenumber": "77",
    "addr:postcode": "14000",
    "addr:street": "Rue de Bernières",
    "brand": "Biocoop",
    "bulk_purchase": "yes",
    "contact:phone": "+33 2 31803051",
    "name": "Biocoop Passage Démogé",
    "opening_hours": "Mo-Sa 09:30-19:30",
    "organic": "only",
    "ref:FR:NAF": "4711C",
    "shop": "convenience",
    "website": "http://biocoop.fr/magasins-bio/Trouver-mon-magasin-Biocoop/Normandie/Calvados/BIOCOOP-PASSAGE-DEMOGE"
  }
},
{
  "type": "node",
  "id": 5132304814,
  "lat": 47.2838290,
  "lon": -1.5528676,
  "tags": {
    "addr:city": "La Chapelle-sur-Erdre",
    "addr:postcode": "44240",
    "addr:street": "Rue D'Utrecht",
    "bulk_purchase": "yes",
    "name": "Naturéo",
    "opening_hours": "Mo-Sa 09:30-20:00; Su off",
    "organic": "only",
    "shop": "supermarket",
    "website": "https://www.natureo-bio.fr/magasin-bio/la-chapelle-sur-erdre/"
  }
},
{
  "type": "node",
  "id": 5145048483,
  "lat": 41.4928743,
  "lon": 2.1386127,
  "tags": {
    "addr:city": "Cerdanyola del Vallès",
    "addr:housenumber": "21-23",
    "addr:postcode": "08290",
    "addr:street": "Passeig Cordelles",
    "addr:unit": "2",
    "bulk_purchase": "yes",
    "description": "Bulk food and spices",
    "email": "panxa.contenta@hotmail.com",
    "name": "Panxa Contenta",
    "opening_hours": "Mo-Sa 10:00-13:30; Mo-Fr 17:00-20:00; Su closed",
    "payment:cash": "yes",
    "payment:credit_cards": "yes",
    "phone": "+34 931 82 58 18",
    "shop": "supermarket",
    "website": "https://facebook.com/panxa.contenta.cerdanyola/"
  }
},
{
  "type": "node",
  "id": 5145052699,
  "lat": 41.4916468,
  "lon": 2.1417509,
  "tags": {
    "addr:city": "Cerdanyola del Vallès",
    "addr:housenumber": "74",
    "addr:postcode": "08290",
    "addr:street": "Carrer de Francesc Layret",
    "bulk_purchase": "yes",
    "description": "Bulk food and spices",
    "email": "elpicoti.cerdanyola@gmail.com",
    "name": "El picotí",
    "opening_hours": "Mo 17:00-20:30; Tu-Sa 9:00-14:00, 17:00-20:30",
    "phone": "+34 660 87 94 19",
    "shop": "supermarket",
    "website": "https://www.facebook.com/elpicoti"
  }
},
{
  "type": "node",
  "id": 5154125899,
  "lat": 48.5589047,
  "lon": -3.1223007,
  "tags": {
    "addr:city": "Saint-Agathon",
    "addr:postcode": "22200",
    "addr:street": "Rue du Stade",
    "bulk_purchase": "yes",
    "name": "Biocoop Guimgampaise",
    "organic": "yes",
    "shop": "supermarket",
    "website": "https://www.biocoop.fr/magasins-bio/Trouver-mon-magasin-Biocoop/Bretagne/Cotes-d-Armor/BIOCOOP-GUINGAMPAISE"
  }
},
{
  "type": "node",
  "id": 5154982882,
  "lat": 43.4040904,
  "lon": -0.3862926,
  "tags": {
    "addr:city": "Sauvagnon",
    "addr:postcode": "64230",
    "addr:street": "Rue du Béarn",
    "addr:unit": "Place du champ de Foire",
    "bulk_purchase": "yes",
    "description": "Epicerie vrac, bio et local. Ateliers pour gagner en autonomie. Conférences/Projections pour échanger sur les chemins de la transition.",
    "email": "lahallepaysanne64@gmail.com",
    "name": "La Halle Paysanne 64",
    "opening_hours": "Mo-Fr 16:00-20:00; Sa 14:00-20:00",
    "organic": "yes",
    "phone": "+33 6 47 99 76 03",
    "shop": "convenience",
    "start_date": "25 Novembre 2017",
    "wheelchair": "yes"
  }
},
{
  "type": "node",
  "id": 5178467132,
  "lat": 47.4475261,
  "lon": -0.5098650,
  "tags": {
    "addr:city": "Les Ponts-de-Cé",
    "addr:housenumber": "216",
    "addr:postcode": "49130",
    "addr:street": "Route de la Pyramide",
    "bulk_purchase": "yes",
    "name": "Biocoop la Pyramide",
    "opening_hours": "Mo 10:00-13:30,15:00,19:30; Tu-Th 09:30-13:30,15:00-19:30; Fr-Sa 9:30-19:30",
    "organic": "only",
    "phone": "+33 2 41 69 35 49",
    "shop": "supermarket",
    "website": "http://lapyramide.biocoop.net"
  }
},
{
  "type": "node",
  "id": 5188912372,
  "lat": 51.5436100,
  "lon": -0.0758230,
  "tags": {
    "bulk_purchase": "only",
    "name": "Bulk Market",
    "shop": "convenience",
    "website": "https://www.bulkmarket.uk/"
  }
},
{
  "type": "node",
  "id": 5202232443,
  "lat": 50.6312625,
  "lon": 3.0544663,
  "tags": {
    "branch": "Lille Solférino",
    "bulk_purchase": "yes",
    "contact:website": "http://www.bio-c-bon.eu/fr/nos_magasins/bio-c-bon-lille-solferino",
    "name": "Bio c'Bon",
    "organic": "yes",
    "shop": "supermarket",
    "source": "survey",
    "survey:date": "2017-10"
  }
},
{
  "type": "node",
  "id": 5202943314,
  "lat": 41.3797898,
  "lon": 2.1619606,
  "tags": {
    "addr:city": "Barcelona",
    "addr:housenumber": "16",
    "addr:postcode": "08011",
    "addr:street": "Carrer del Comte d'Urgell",
    "bulk_purchase": "yes",
    "email": "info@elpagesdor.com",
    "name": "El Pages d'Or",
    "opening_hours": "Mo-Su 09:00-21:00",
    "phone": "+34 930 07 33 01",
    "shop": "supermarket",
    "website": "https://www.facebook.com/pagesdor"
  }
},
{
  "type": "node",
  "id": 5203044962,
  "lat": 41.3759466,
  "lon": 2.1536654,
  "tags": {
    "addr:city": "Barcelona",
    "addr:housenumber": "62",
    "addr:postcode": "08015",
    "addr:street": "Avinguda de Mistral",
    "bulk_purchase": "yes",
    "diet:vegan": "only",
    "email": "info@gransdelaterra.com",
    "name": "Grans de la Terra",
    "opening_hours": "Mo-Sa 10:00-21:30",
    "phone": "+34 936 11 61 86",
    "shop": "supermarket",
    "website": "http://www.gransdelaterra.com/"
  }
},
{
  "type": "node",
  "id": 5203180301,
  "lat": 41.3996311,
  "lon": 2.1541322,
  "tags": {
    "addr:city": "Barcelona",
    "addr:housenumber": "17",
    "addr:postcode": "08012",
    "addr:street": "Carrer de Sant Cristòfol",
    "bulk_purchase": "yes",
    "name": "Al gra",
    "opening_hours": "Mo-Fr 09:30-15:00; 17:00-20:30; Sa 09:30-15:00; Su closed",
    "phone": "+34 932 38 89 55",
    "shop": "supermarket",
    "website": "https://www.facebook.com/algrabcn"
  }
},
{
  "type": "node",
  "id": 5223678126,
  "lat": 47.9595240,
  "lon": -1.4953277,
  "tags": {
    "addr:city": "Janzé",
    "addr:housenumber": "25",
    "addr:postcode": "35150",
    "addr:street": "Rue Paul Painlevé",
    "bulk_purchase": "yes",
    "delivery": "no",
    "diet:vegan": "yes",
    "diet:vegetarian": "yes",
    "drive_through": "no",
    "email": "lecarrebiologique@gmail.com",
    "name": "Le Carré Biologique",
    "operator": "CB Janzé",
    "organic": "only",
    "phone": "+33 2 99 74 72 28",
    "shop": "supermarket",
    "website": "http://le-carre-biologique.fr"
  }
},
{
  "type": "node",
  "id": 5225492519,
  "lat": 47.6629075,
  "lon": -2.8014830,
  "tags": {
    "addr:city": "Ploeren",
    "addr:housenumber": "7",
    "addr:postcode": "56880",
    "addr:street": "Avenue Louis de Cadoudal",
    "bulk_purchase": "yes",
    "name": "Bio Golfe Luscanen",
    "organic": "only",
    "shop": "supermarket",
    "website": "http://www.biogolfe.org/bio-golfe-luscanen/"
  }
},
{
  "type": "node",
  "id": 5226961589,
  "lat": 47.2286219,
  "lon": -1.6343382,
  "tags": {
    "addr:city": "Saint-Herblain",
    "addr:housenumber": "279",
    "addr:postcode": "44800",
    "addr:street": "Boulevard Marcel Paul",
    "bulk_purchase": "yes",
    "name": "Chlorophylle",
    "opening_hours": "Mo-Sa 09:00-19:30; Su off",
    "shop": "supermarket",
    "website": "http://www.chlorophylle-coop.com/"
  }
},
{
  "type": "node",
  "id": 5239347433,
  "lat": 45.8971882,
  "lon": 6.1131652,
  "tags": {
    "bulk_purchase": "only",
    "name": "Le local",
    "shop": "convenience",
    "website": "http://lelocal-epicerie.fr/"
  }
},
{
  "type": "node",
  "id": 5244957090,
  "lat": 44.6120317,
  "lon": 4.4096678,
  "tags": {
    "addr:city": "Saint-Didier-sous-Aubenas",
    "addr:housenumber": "970",
    "addr:postcode": "07200",
    "addr:street": "Route de Montélimar",
    "bulk_purchase": "yes",
    "name": "Biocoop Les Gatobio",
    "organic": "only",
    "shop": "supermarket",
    "website": "http://lesgatobio.biocoop.net"
  }
},
{
  "type": "node",
  "id": 5248675265,
  "lat": 41.3857346,
  "lon": 2.1828163,
  "tags": {
    "addr:city": "Barcelona",
    "addr:housenumber": "2",
    "addr:postcode": "08003",
    "addr:street": "Plaça Comercial",
    "bulk_purchase": "yes",
    "email": "info@casaperris.com",
    "name": "Casa Perris",
    "opening_hours": "Mo-Fr 08:00-20:00; Sa 08:30-20:00",
    "phone": "+34 933 19 55 48",
    "shop": "supermarket",
    "website": "http://www.casaperris.com"
  }
},
{
  "type": "node",
  "id": 5252737243,
  "lat": 46.8031941,
  "lon": 4.4508793,
  "tags": {
    "addr:city": "Le Creusot",
    "addr:housenumber": "183",
    "addr:postcode": "71200",
    "addr:street": "Rue du Maréchal Foch",
    "bulk_purchase": "only",
    "name": "Le Poids Gourmand",
    "shop": "convenience"
  }
},
{
  "type": "node",
  "id": 5254673803,
  "lat": 47.7999229,
  "lon": -3.4755078,
  "tags": {
    "addr:city": "Guidel",
    "addr:postcode": "56520",
    "addr:street": "Parc commercial des 5 chemins",
    "bulk_purchase": "yes",
    "name": "Biocoop Les 7 Épis",
    "opening_hours": "Tu-Th 09:30-13:00,15:00-19:00; Fr,Sa 09:30-19:00",
    "operator": "Les 7 Épis",
    "organic": "only",
    "phone": "+33 2 97 81 89 12",
    "shop": "supermarket",
    "start_date": "2017-11-29",
    "website": "http://www.les7epis.fr"
  }
},
{
  "type": "node",
  "id": 5277827989,
  "lat": 47.2167671,
  "lon": -1.5592915,
  "tags": {
    "addr:city": "Nantes",
    "addr:housenumber": "3",
    "addr:postcode": "44000",
    "addr:street": "Rue Pierre-Chéreau",
    "bulk_purchase": "only",
    "name": "Épicerie Day by Day",
    "opening_hours": "Tu-Sa 10:30-13:00,15:00-19:00",
    "organic": "yes",
    "shop": "convenience",
    "website": "http://daybyday-shop.com/magasin/nantes"
  }
},
{
  "type": "node",
  "id": 5311816160,
  "lat": 45.9487068,
  "lon": -0.9905357,
  "tags": {
    "bulk_purchase": "yes",
    "name": "Biocoop Rochefort",
    "organic": "only",
    "shop": "supermarket",
    "website": "http://www.biocoop-rochefort.com"
  }
},
{
  "type": "node",
  "id": 5333494928,
  "lat": 47.2574890,
  "lon": -2.3166586,
  "tags": {
    "addr:city": "Pornichet",
    "addr:housenumber": "4",
    "addr:postcode": "44380",
    "addr:street": "Avenue du Courtil Riel",
    "bulk_purchase": "yes",
    "name": "Les Hameaux Bio Biocoop Pornichet",
    "organic": "only",
    "shop": "supermarket",
    "website": "http://www.leshameauxbio.fr/magasins/o%C3%B9-sommes-nous/pornichet/"
  }
},
{
  "type": "node",
  "id": 5338061797,
  "lat": 48.1146955,
  "lon": -1.6573630,
  "tags": {
    "addr:city": "Rennes",
    "addr:housenumber": "131",
    "addr:postcode": "35000",
    "addr:street": "Rue de Paris",
    "brand:wikipedia": "fr:Biocoop",
    "bulk_purchase": "yes",
    "email": "magasin.paris@scarabee-biocoop.fr",
    "name": "Biocoop Scarabée Rue de Paris",
    "opening_hours": "Mo-Sa 09:30-19:30",
    "operator": "Scarabée Biocoop",
    "organic": "only",
    "payment:cash": "yes",
    "payment:coins": "yes",
    "payment:mastercard": "yes",
    "payment:visa": "yes",
    "phone": "+33 2 99 60 00 23",
    "shop": "convenience",
    "website": "http://scarabee-biocoop.fr"
  }
},
{
  "type": "node",
  "id": 5403722957,
  "lat": 43.9584738,
  "lon": 5.7769444,
  "tags": {
    "addr:city": "Forcalquier",
    "addr:housenumber": "5",
    "addr:postcode": "04300",
    "addr:street": "Avenue de Verdun",
    "bulk_purchase": "yes",
    "currency:XLT": "ROUE",
    "name": "Biocoop Jojoba",
    "organic": "only",
    "shop": "supermarket",
    "website": "http://biocoop.fr/magasins-bio/Trouver-mon-magasin-Biocoop/Provence-Alpes-Cote-d-Azur/Alpes-de-Haute-Provence/JOJOBA"
  }
},
{
  "type": "node",
  "id": 5407834233,
  "lat": 43.2987595,
  "lon": 5.3983641,
  "tags": {
    "bulk_purchase": "only",
    "name": "Day by day",
    "opening_hours": "Tu-Sa 09:30-13:00, 15:00-19:00",
    "organic": "yes",
    "shop": "convenience"
  }
},
{
  "type": "node",
  "id": 5409751735,
  "lat": 47.2939053,
  "lon": -1.3914448,
  "tags": {
    "addr:city": "Mauves-sur-Loire",
    "addr:housenumber": "1",
    "addr:postcode": "44470",
    "addr:street": "Rue Loquets",
    "bulk_purchase": "yes",
    "name": "L'Epicerie du Port",
    "opening_hours": "Mo 15:00-19:30; Tu-Fr 09:00-12:30, 15:00-19:45; Th off; Sa 09:00-12:30, 15:00-19:00; Su 09:30-12:30",
    "organic": "yes",
    "shop": "convenience",
    "website": "https://www.facebook.com/L%C3%A9picerie-du-port-574717069319717/"
  }
},
{
  "type": "node",
  "id": 5412170284,
  "lat": 47.2315637,
  "lon": -1.5744980,
  "tags": {
    "addr:city": "Nantes",
    "addr:housenumber": "42",
    "addr:postcode": "44100",
    "addr:street": "Boulevard Jean XXIII",
    "bulk_purchase": "only",
    "name": "Green Shopper",
    "opening_hours": "Mo 15:00-20:00; Tu-We 10:00-13:00, 17:00-19:00; Th 15:00-20:00; Fr 10:00-13:00, 17:00-19:00",
    "organic": "yes",
    "shop": "convenience",
    "website": "https://greenshopper.fr/"
  }
},
{
  "type": "node",
  "id": 5413237027,
  "lat": 47.2507053,
  "lon": -1.6166313,
  "tags": {
    "addr:city": "Orvault",
    "addr:housenumber": "290",
    "addr:postcode": "44706",
    "addr:street": "Route de Vannes",
    "bulk_purchase": "yes",
    "name": "Les Fermiers du coin",
    "opening_hours": "Tu-Fr 09:30-19:30; Sa 09:30-18:00; Su off",
    "organic": "yes",
    "shop": "convenience",
    "website": "http://www.lesfermiersducoin.fr/"
  }
},
{
  "type": "node",
  "id": 5414276240,
  "lat": 47.1037065,
  "lon": -1.2322024,
  "tags": {
    "addr:city": "Sèvremoine",
    "addr:housenumber": "14 bis",
    "addr:postcode": "49230",
    "addr:street": "Le Parveau",
    "bulk_purchase": "only",
    "contact:email": "casavrac@gmail.com",
    "description": "Boutique de vente en ligne et sur place de produits vrac avec ivraison ou retrait en boutique",
    "name": "CasaVrac",
    "opening_hours:url": "https://www.casavrac.com/horaires",
    "organic": "yes",
    "shop": "convenience",
    "website": "https://www.casavrac.com/"
  }
},
{
  "type": "node",
  "id": 5418567639,
  "lat": 47.5211878,
  "lon": -2.2869608,
  "tags": {
    "addr:city": "Nivillac",
    "addr:postcode": "56130",
    "addr:street": "Route de Redon-Saint Dolay",
    "bulk_purchase": "yes",
    "name": "O'Val en Vert",
    "opening_hours": "Mo 14:00-19:00; Tu-Sa 09:15-19:00; Su off",
    "organic": "yes",
    "shop": "convenience",
    "website": "http://ovalenvert.fr/"
  }
},
{
  "type": "node",
  "id": 5420284870,
  "lat": 47.1747231,
  "lon": -1.5193826,
  "tags": {
    "addr:city": "Vertou",
    "addr:housenumber": "3",
    "addr:postcode": "44120",
    "addr:street": "Place Pierre Desfossés",
    "bulk_purchase": "yes",
    "name": "Les coteaux nantais Vertou",
    "opening_hours": "Mo off; Tu-Sa 09:00-12:30, 15:00-18:30; Su off",
    "organic": "yes",
    "shop": "convenience",
    "website": "http://www.coteaux-nantais.com/fr/content/vente-directe"
  }
},
{
  "type": "node",
  "id": 5452060690,
  "lat": 50.9175650,
  "lon": 6.9604634,
  "tags": {
    "addr:city": "Köln",
    "addr:country": "DE",
    "addr:housenumber": "66",
    "addr:postcode": "50677",
    "addr:street": "Bonner Straße",
    "bulk_purchase": "yes",
    "email": "info@migori.de",
    "name": "migori",
    "opening_hours": "Mo-We 10:00-18:30; Th-Fr 10:00-20:00; Sa 10:00-16:00; Su,PH off",
    "organic": "yes",
    "phone": "+40 221 94246298",
    "shop": "convenience",
    "website": "http://migori.de/",
    "wheelchair": "yes"
  }
},