[{"lat":45.8353121,"lon":-0.6783881,"id":"node/631628034","addr":"3 Rue du Port<br />17350 Port-d'Envaux<br />","shop":"bakery","name":"Boulangerie Barodon"},{"lat":45.8287371,"lon":-0.8748,"id":"node/1867172411","addr":"13 Avenue André Malraux<br />17250 Pont-l'Abbé-d'Arnoult<br />","shop":"bakery","name":"Boulangerie Faucon Michel"},{"lat":46.2439857,"lon":-0.8071055,"id":"node/1874273505","addr":"2 Bis Rue du Bussin<br />17170 Courçon<br />","shop":"bakery","name":"Boulangerie SARL Goichon"},{"lat":45.9437618,"lon":-0.5209145,"id":"node/2503170551","addr":"11 Rue Grosse Horloge<br />17400 Saint-Jean-d'Angély<br />","shop":"convenience","name":"Bio Saint Jean"},{"lat":45.9441847,"lon":-0.519353,"id":"node/2964997063","addr":"28 Rue de l'Hôtel de Ville<br />17400 Saint-Jean-d'Angély<br />","shop":"butcher","name":"Albert Bruno"},{"lat":46.1074144,"lon":-0.7513793,"id":"node/4282340895","addr":"86 Rue Audry de Puyravault<br />17700 Surgères<br />","url":"http://joyet-traiteur.com/artisan-boucher-charcutier-surgeres-charente-maritime.aspx","shop":"butcher","name":"Joyet"},{"lat":46.1063101,"lon":-0.7518011,"id":"node/4959779531","addr":"26 Place de l'Europe<br />17700 Surgères<br />","shop":"bakery","name":"Mathé"},{"lat":49.6425588,"lon":-1.6262971,"id":"node/5594452333","addr":"19 Rue de la Paix<br />50100 Cherbourg<br />","url":"https://www.facebook.com/laconsigne.epicerie.durable/","shop":"convenience","bio":"yes","bulk":"only","name":"La Consigne"},{"lat":46.1070433,"lon":-0.7513112,"id":"node/5735767337","addr":"2 Rue Bersot<br />17700 Surgères<br />","url":"https://www.facebook.com/Charcuterie-Jugel%C3%A9-898575950257843/","shop":"butcher","name":"Charcuterie Jugelé"},{"lat":46.1068424,"lon":-0.7514325,"id":"node/6391113867","addr":"10 Rue Bersot<br />17700 Surgères<br />","url":"http://www.fred-dubois.info/commercants_surgeres/page_com/pidoux.htm","shop":"pastry","name":"Pâtisserie Alain Pidoux"},{"lat":46.1035395,"lon":-0.7534799,"id":"node/6396154439","addr":"14 Avenue Saint-Pierre<br />17700 Surgères<br />","url":"https://www.facebook.com/patisseriebrissonromainetlaetitia/","shop":"bakery","name":"Brisson"},{"lat":46.1157389,"lon":-0.9348047,"id":"node/6396162738","addr":"5 Rue de l'Aunis<br />17290 Aigrefeuille-d'Aunis<br />","url":"https://www.facebook.com/patisseriebrissonromainetlaetitia/","shop":"bakery","name":"Laëtitia et Romain Brisson"},{"lat":46.0990501,"lon":-0.9410009,"id":"node/6397851431","addr":"3 Rue du Petit Bois<br />17290 Le Thou<br />","shop":"cheese"},{"lat":46.1091932,"lon":-0.7555488,"id":"node/6398093703","addr":"28 Rue Audry de Puyravault<br />17700 Surgères<br />","shop":"bakery","name":"Le Palais des Gourmandises"},{"lat":46.1080993,"lon":-0.7834382,"id":"node/6408521719","addr":"Rue Bernadette Goriou<br />","shop":"farm","name":"A la Ferme d'Aunis"},{"lat":46.116729,"lon":-0.9333349,"id":"node/6408618341","addr":"22 Place de la République<br />17290 Aigrefeuille-d'Aunis<br />","shop":"bakery","name":"Sabrina et Emmanuel DUBOUÉ"},{"lat":46.1251018,"lon":-0.6348614,"id":"node/6487719633","addr":"2 Route du Stade<br />17700 Boisse, MARSAIS<br />","shop":"bakery","name":"Boulangerie les Délices"},{"lat":46.0553057,"lon":-0.7648765,"id":"node/6513228093","addr":"20 bis Rue Charles Henri Percheron<br />17700 La Devise<br />","shop":"convenience","name":"Epicerie Service Vandré"},{"lat":46.149275,"lon":-0.8003172,"id":"node/6513232222","addr":"1 Rue du Moulin Godard<br />17700 Vouhé<br />","shop":"bakery","name":"Blanchard Sébastien"},{"lat":46.0850027,"lon":-0.9236615,"id":"node/6513260714","addr":"1 A Allée du Foirail<br />17290 Le Thou<br />","shop":"bakery","name":"Boulangerie - Pâtisserie L.Gaudin"},{"lat":46.084954,"lon":-0.9239738,"id":"node/6513278938","addr":"Rue du Château de Cigogne<br />17290 Le Thou<br />","shop":"convenience","name":"Vival du Thou o tout"},{"lat":46.1074623,"lon":-0.7509067,"id":"node/6513346250","addr":"Allée du Marché<br />17700 Surgères<br />","shop":"butcher","name":"Sibileau"},{"lat":46.1074642,"lon":-0.7508692,"id":"node/6513346251","addr":"Allée du Marché<br />17700 Surgères<br />","shop":"seafood","name":"Poissonnerie Neraudeau"},{"lat":46.1074939,"lon":-0.7509496,"id":"node/6513346252","addr":"Allée du Marché<br />17700 Surgères<br />","shop":"convenience","name":"LEFEBVRE Gilbert et Sylvie"},{"lat":46.1074828,"lon":-0.7509604,"id":"node/6513346253","addr":"Allée du Marché<br />17700 Surgères<br />","shop":"greengrocer","name":"REMBERT Thierry"},{"lat":46.107453,"lon":-0.7508799,"id":"node/6513346254","addr":"Allée du Marché<br />17700 Surgères<br />","shop":"seafood","name":"La Marennine - JLG 17"},{"lat":46.1074679,"lon":-0.7509845,"id":"node/6513346255","addr":"Allée du Marché<br />17700 Surgères<br />","shop":"seafood","name":"MOREAU Patrick"},{"lat":46.1074753,"lon":-0.750955,"id":"node/6513346256","addr":"Allée du Marché<br />17700 Surgères<br />","shop":"greengrocer","name":"Couleur Marché - EURL VD"},{"lat":46.1074586,"lon":-0.7509577,"id":"node/6513346257","addr":"Allée du Marché<br />17700 Surgères<br />","shop":"butcher","name":"SARL du Bois du Pan"},{"lat":46.10744,"lon":-0.7509175,"id":"node/6513346258","addr":"Allée du Marché<br />17700 Surgères<br />","shop":"greengrocer","name":"SARL Aux Portes du Marais"},{"lat":46.224805,"lon":-1.0356688,"id":"node/6517960034","addr":"5 Place de la Libération<br />17230 Saint-Ouen-d'Aunis<br />","shop":"bakery","name":"Au Fournil de Saint-Ouen"},{"lat":46.2159584,"lon":-0.8874715,"id":"node/6518133176","addr":"26 Rue de Ligoure<br />17540 Saint-Sauveur-d'Aunis<br />","shop":"bakery","name":"Blanchard Sébastien"},{"lat":45.8892335,"lon":-0.5213871,"id":"node/6518485829","addr":"12 Avenue de Saint-Jean d'Angély<br />17400 Asnières-la-Giraud<br />","shop":"bakery","name":"La Daugenette"},{"lat":46.0473497,"lon":-0.5111722,"id":"node/6518487671","addr":"22 Place du Général de Gaulle<br />17330 Loulay<br />","shop":"butcher","name":"Chez Tatianna et Nicolas"},{"lat":45.8673683,"lon":-0.3205435,"id":"node/6518497300","addr":"9 Place Sanson<br />17160 Matha<br />","shop":"bakery","name":"Le Fournil du Château"},{"lat":46.0209125,"lon":-0.3465902,"id":"node/6518498771","addr":"17 Place Aristide Briand<br />17470 Aulnay<br />","shop":"bakery","name":"O'Donjon des Gourmets"},{"lat":45.8673423,"lon":-0.3204703,"id":"node/6518536686","addr":"10 Place Sanson<br />17160 Matha<br />","shop":"butcher","name":"Chartier Marcel"},{"lat":45.8675392,"lon":-0.3210896,"id":"node/6524278073","addr":"12 Rue de Saint-Jean d'Angély<br />17160 Matha<br />","shop":"bakery","name":"Relais des Gourmandises"},{"lat":46.2254126,"lon":-0.9317539,"id":"node/6524314669","addr":"1 Place du Four<br />17540 Nuaillé-d'Aunis<br />","shop":"bakery","name":"Boulangerie Martineau"},{"lat":46.2169892,"lon":-0.8870839,"id":"node/6524323417","addr":"12 Rue de Ligoure<br />17540 Saint-Sauveur-d'Aunis<br />","shop":"butcher","name":"La Boucherie de Saint-Sauveur"},{"lat":46.2038148,"lon":-0.817,"id":"node/6524561218","addr":"14 Rue du Château<br />17170 Benon<br />","shop":"convenience","name":"PROXI Les Halles de Benon"},{"lat":45.7446187,"lon":-0.6310117,"id":"node/6524568122","addr":"23 Rue Saint-Pierre<br />17100 Saintes<br />","craft":"caterer","name":"Saveurs Orientales"},{"lat":45.7445906,"lon":-0.6310332,"id":"node/6524568123","addr":"23 Rue Saint-Pierre<br />17100 Saintes<br />","shop":"greengrocer","name":"Stand Fermier"},{"lat":46.3004041,"lon":-0.8076844,"id":"node/6524588998","addr":"12 Rue Texier de Norbecq<br />17170 La Ronde<br />","shop":"butcher","name":"Boucherie LV"},{"lat":45.7445606,"lon":-0.6310493,"id":"node/6524590575","addr":"23 Rue Saint-Pierre<br />17100 Saintes<br />","shop":"cheese","name":"Fromagerie David"},{"lat":45.7445419,"lon":-0.6310653,"id":"node/6524594676","addr":"23 Rue Saint-Pierre<br />17100 Saintes<br />","shop":"cheese","name":"Noëlle au Pays des Fromages"},{"lat":45.7446804,"lon":-0.6308749,"id":"node/6524594677","addr":"23 Rue Saint-Pierre<br />17100 Saintes<br />","shop":"bakery","name":"Boulangerie - l'Authentique"},{"lat":45.7446673,"lon":-0.6309876,"id":"node/6524613499","addr":"23 Rue Saint-Pierre<br />17100 Saintes<br />","shop":"butcher","name":"EARL Elevage Boyer"},{"lat":45.7446748,"lon":-0.6307864,"id":"node/6524633159","addr":"23 Rue Saint-Pierre<br />17100 Saintes<br />","shop":"butcher","name":"A. Ravelaud"},{"lat":45.7446056,"lon":-0.6307006,"id":"node/6524636043","addr":"23 Rue Saint-Pierre<br />17100 Saintes<br />","shop":"greengrocer","name":"Coeur de Laitue"},{"lat":45.7445775,"lon":-0.630722,"id":"node/6524636044","addr":"23 Rue Saint-Pierre<br />17100 Saintes<br />","shop":"pastry","name":"Aux Macarons d'Antan"},{"lat":45.744555,"lon":-0.6307274,"id":"node/6524645127","addr":"23 Rue Saint-Pierre<br />17100 Saintes<br />","shop":"greengrocer","name":"Primeur Vinet"},{"lat":45.7446823,"lon":-0.6308266,"id":"node/6524645278","addr":"23 Rue Saint-Pierre<br />17100 Saintes<br />","shop":"cheese","name":"Fromagerie Fine Moreau"},{"lat":45.7330153,"lon":-0.6436318,"id":"node/6524650256","addr":"6 Avenue de Bellevue<br />17100 Saintes<br />","craft":"caterer","name":"Saveurs Orientales"},{"lat":45.749652,"lon":-0.6458168,"id":"node/6524671419","addr":"30 Cours du Maréchal Leclerc<br />17100 Saintes<br />","shop":"bakery","name":"Boulangerie l'Authentique"},{"lat":45.5690601,"lon":-0.6766306,"id":"node/6616670133","addr":"7 Rue de la Libération<br />17260 Gémozac<br />","shop":"butcher","name":"GASSIEN Denis"},{"lat":45.5692746,"lon":-0.678688,"id":"node/6616993686","addr":"19 Rue du Général Leclerc<br />17260 Gémozac<br />","shop":"bakery","name":"SARL La Frangipane"},{"lat":45.5973733,"lon":-0.7086678,"id":"node/6617008541","addr":"41 Rue du Jardin Public<br />17260 Cravans<br />","shop":"bakery","name":"SARL La Boulangerie Cravanaise"},{"lat":45.6510225,"lon":-0.8117071,"id":"node/6617018498","addr":"23 Grande Rue<br />17120 Meursac<br />","shop":"bakery","name":"FLAUSSE Pierre Jean"},{"lat":45.6499103,"lon":-0.8084434,"id":"node/6617024251","addr":"8 Rue Principale<br />17120 Meursac<br />","shop":"butcher","name":"SARL Freymann"},{"lat":45.6497724,"lon":-0.809362,"id":"node/6617045635","addr":"7 Rue des Écoles<br />17120 Meursac<br />","shop":"convenience","name":"SUDRE Virginie"},{"lat":45.6002521,"lon":-0.7484963,"id":"node/6618409735","addr":"3 Rue de la Seudre<br />17260 Saint-André-de-Lidon<br />","shop":"convenience","name":"Epicerie Vival"},{"lat":45.6001718,"lon":-0.7485576,"id":"node/6618422223","addr":"1 Rue de la Seudre<br />17260 Saint-André-de-Lidon<br />","shop":"bakery","name":"Boulangerie - Pâtisserie"},{"lat":45.857192,"lon":-0.8310596,"id":"node/6631196967","addr":"39 B Rue Maréchal Leclerc<br />17250 Beurlay<br />","shop":"bakery","name":"Pellon Eric"},{"lat":45.8295108,"lon":-0.8673192,"id":"node/6631621300","addr":"68 Avenue André Malraux<br />17250 Pont-l'Abbé-d'Arnoult<br />","shop":"bakery","name":"Chez Pellon"},{"lat":46.2138828,"lon":-0.9541477,"id":"node/6752710768","addr":"8 rue des sables<br />17540 Angliers<br />","shop":"convenience","name":"Vival - Le Marché d'Hortense"},{"lat":46.3011629,"lon":-1.0961702,"id":"node/6752784529","addr":"Zone Commerciale les Morines<br />17230 Charron<br />","shop":"bakery","name":"SARL Fleur de Blé"},{"lat":46.3013638,"lon":-1.0961533,"id":"node/6752790714","addr":"Zone Commerciale les Morines<br />17230 Charron<br />","shop":"butcher","name":"Sodipral"},{"lat":46.0553036,"lon":-0.7644348,"id":"node/6905851887","addr":"2 Rue du 26ème Régiment d'Infanterie<br />17700 Vandré<br />","shop":"butcher","name":"Boucherie VINET"},{"lat":46.1002775,"lon":-0.6763361,"id":"node/6905890630","addr":"24 Rue le Logis de Boisseuil<br />17700 Boisseul<br />","shop":"convenience","name":"La P'tite Epicerie"},{"lat":45.7587762,"lon":-0.7307741,"id":"node/6905974603","addr":"37 Rue Rouyer Guillet<br />17810 Nieul-lès-Saintes<br />","shop":"bakery","name":"Boulangerie - Pâtisserie"},{"lat":45.7717413,"lon":-0.8887438,"id":"node/6906001141","addr":"2 Rue du Prieuré<br />17250 Sainte-Gemme<br />","shop":"bakery","name":"Geffre Sébastien"},{"lat":45.7421189,"lon":-0.8369364,"id":"node/6906008333","addr":"72 Route de l'Océan<br />17600 Balanzac<br />","shop":"bakery","name":"Boulangerie Balanzac"},{"lat":46.1073744,"lon":-0.7516876,"id":"way/72801802","addr":"73 Rue Audry de Puyravault<br />17700 Surgères<br />","url":"http://www.unisvertbio.com/","shop":"convenience","bio":"only","bulk":"yes","name":"Unis Vert Bio"},{"lat":46.1165522,"lon":-0.9334879,"id":"way/683048093","addr":"18 Place de la République<br />17290 Aigrefeuille-d'Aunis<br />","shop":"bakery","name":"Aux milles délices"}]