{
  "version": 0.6,
  "generator": "Overpass API 0.7.54.13 ff15392f",
  "osm3s": {
    "timestamp_osm_base": "2018-04-24T21:54:02Z",
    "copyright": "The data included in this document is from www.openstreetmap.org. The data is made available under ODbL."
  },
  "elements": [

{
  "type": "node",
  "id": 364694509,
  "lat": 47.2172918,
  "lon": -1.5524959,
  "tags": {
    "addr:city": "Nantes",
    "addr:housenumber": "5",
    "addr:postcode": "44000",
    "addr:street": "Rue de Strasbourg",
    "amenity": "restaurant",
    "contact:city": "Nantes",
    "contact:country": "FR",
    "contact:housenumber": "21",
    "contact:postcode": "44000",
    "contact:street": "Rue de Strasbourg",
    "cuisine": "french",
    "name": "La Cuillère en Coin",
    "source": "cadastre-dgi-fr source : Direction Générale des Impôts - Cadastre;mise à jour : 2009"
  }
},
{
  "type": "node",
  "id": 371490531,
  "lat": 45.6359182,
  "lon": 0.2094427,
  "tags": {
    "addr:city": "Soyaux",
    "addr:housenumber": "278",
    "addr:postcode": "16800",
    "addr:street": "Avenue du Général de Gaulle",
    "bulk_purchase": "yes",
    "name": "Biocoop l'Epicea",
    "organic": "only",
    "shop": "supermarket",
    "website": "http://biocoop.fr/magasins-bio/Trouver-mon-magasin-Biocoop/Nouvelle-Aquitaine2/Charente/L-EPICEA"
  }
},
{
  "type": "node",
  "id": 475385271,
  "lat": 47.2147524,
  "lon": -1.5548521,
  "tags": {
    "addr:city": "Nantes",
    "addr:housenumber": "9",
    "addr:postcode": "44000",
    "addr:street": "Rue de la Bléterie",
    "amenity": "restaurant",
    "contact:city": "Nantes",
    "contact:country": "FR",
    "contact:housenumber": "9",
    "contact:postcode": "44000",
    "contact:street": "Rue de la Bléterie",
    "contact:website": "http://www.chacharestaurant.fr/",
    "cuisine": "french",
    "name": "Chacha",
    "organic": "yes",
    "takeaway": "yes"
  }
},
{
  "type": "node",
  "id": 476294585,
  "lat": 47.2148495,
  "lon": -1.5552388,
  "tags": {
    "addr:city": "Nantes",
    "addr:housenumber": "13",
    "addr:postcode": "44000",
    "addr:street": "Rue Beauregard",
    "amenity": "restaurant",
    "contact:city": "Nantes",
    "contact:country": "FR",
    "contact:housenumber": "13",
    "contact:postcode": "44000",
    "contact:street": "Rue Beauregard",
    "cuisine": "french",
    "facebook": "http://www.facebook.com/Jargus/",
    "name": "Jargus",
    "opening_hours": "Mo-We 12:00-20:00, Th-Sa 12:00-22:00",
    "website": "http://jargus.fr/"
  }
},
{
  "type": "node",
  "id": 556430190,
  "lat": 50.9120064,
  "lon": 6.9185920,
  "tags": {
    "addr:city": "Köln",
    "addr:country": "DE",
    "addr:housenumber": "406",
    "addr:postcode": "50937",
    "addr:street": "Berrenrather Straße",
    "bulk_purchase": "yes",
    "description": "Kölns erster \"Unverpackt Laden\"",
    "email": "hallo@tante-olga.de",
    "fax": "+49 221 9460077",
    "name": "Tante Olga",
    "note": "ehemals Bäckerei Heilinger",
    "opening_hours": "Mo,Sa 10:00-15:00; Tu-Fr 11:00-19:00; Su,PH off",
    "organic": "yes",
    "phone": "+49 221 94600076",
    "shop": "convenience",
    "start_date": "2016-11-05",
    "website": "http://www.tante-olga.de/",
    "wheelchair": "no"
  }
},
{
  "type": "node",
  "id": 721612299,
  "lat": 45.6319590,
  "lon": -0.9874591,
  "tags": {
    "addr:city": "Royan",
    "addr:housenumber": "24",
    "addr:postcode": "17200",
    "addr:street": "Rue Lavoisier",
    "bulk_purchase": "yes",
    "name": "Biocoop Royan",
    "organic": "only",
    "shop": "supermarket",
    "source": "cadastre-dgi-fr source : Direction Générale des Impôts - Cadastre. Mise à jour : 2010",
    "website": "http://www.biocoop-royan.com"
  }
},
{
  "type": "node",
  "id": 1034073369,
  "lat": 47.2102484,
  "lon": -1.7282223,
  "tags": {
    "addr:city": "Couëron",
    "addr:housenumber": "8",
    "addr:postcode": "44220",
    "addr:street": "Rue Alcide Charles d’ Orbigny",
    "bulk_purchase": "only",
    "contact:email": "contact@epicerie-leptitpoids.fr",
    "name": "Le P'tit Poids",
    "opening_hours": "Tu-Th 09:00-12:30, 14:30-19:00; Fr 09:00-12:30, 15:30-19:00; Sa 09:30-12:30, 15:00-19:00",
    "organic": "yes",
    "shop": "convenience",
    "website": "http://epicerie-leptitpoids.fr/"
  }
},
{
  "type": "node",
  "id": 1070094138,
  "lat": 44.5492144,
  "lon": 6.0654489,
  "tags": {
    "addr:city": "Gap",
    "addr:housenumber": "3",
    "addr:postcode": "05000",
    "addr:street": "Rue Alphonse Daudet",
    "bulk_purchase": "yes",
    "name": "Le Grenier Bicoop",
    "operator": "Biocoop",
    "organic": "only",
    "shop": "supermarket",
    "website": "http://www.legrenier-bio.fr"
  }
},
{
  "type": "node",
  "id": 1179939500,
  "lat": 48.5861734,
  "lon": 7.7433796,
  "tags": {
    "bulk_purchase": "yes",
    "contact:city": "Strasbourg",
    "contact:housenumber": "6",
    "contact:phone": "+33 3 88 36 52 68",
    "contact:postcode": "67000",
    "contact:street": "Rue de Sébastopol",
    "currency:XLT": "STUK",
    "name": "Le Quai des Halles",
    "operator": "Biocoop",
    "organic": "only",
    "payment:cash:XLT-STUK": "yes",
    "ref:FR:SIRET": "79000938500010",
    "shop": "supermarket"
  }
},
{
  "type": "node",
  "id": 1385779909,
  "lat": 43.2103922,
  "lon": 2.3103900,
  "tags": {
    "addr:city": "Carcassone",
    "addr:housenumber": "8",
    "addr:postcode": "11000",
    "addr:street": "Rue Chaptal  Carcassonne",
    "bulk_purchase": "yes",
    "name": "Biocoop Tourne-Sol",
    "operator": "Biocoop",
    "shop": "convenience",
    "website": "http://www.tourne-sol-biocoop.fr"
  }
},
{
  "type": "node",
  "id": 1505749868,
  "lat": 47.1410058,
  "lon": 7.2462051,
  "tags": {
    "addr:city": "Biel/Bienne",
    "addr:country": "CH",
    "addr:housenumber": "1",
    "addr:postcode": "2502",
    "addr:street": "Kirchgässli",
    "addr:street:fr": "Ruelle de l'Église",
    "bulk_purchase": "yes",
    "contact:email": "info@batavia.ch",
    "contact:phone": "+41 32 342 00 64",
    "contact:website": "http://www.batavia.ch",
    "name": "Batavia",
    "opening_hours": "We-Fr 07:00-19:00; Sa 08:30-16:00; Su-Tu off",
    "organic": "yes",
    "shop": "convenience",
    "wheelchair": "no"
  }
},
{
  "type": "node",
  "id": 1574437644,
  "lat": 47.2609125,
  "lon": -1.5167036,
  "tags": {
    "addr:city": "Nantes",
    "addr:housenumber": "20",
    "addr:postcode": "44300",
    "addr:street": "Rue Eugénie Cotton",
    "bulk_purchase": "yes",
    "name": "Chlorophylle Beaujoire",
    "note": "Epicerie Bio",
    "opening_hours": "Mo-Sa 09:00-19:30; Su off",
    "organic": "only",
    "shop": "convenience",
    "website": "http://www.chlorophylle-coop.com/"
  }
},
{
  "type": "node",
  "id": 1577028307,
  "lat": 50.7136090,
  "lon": 7.0448295,
  "tags": {
    "addr:city": "Bonn",
    "addr:country": "DE",
    "addr:housenumber": "266",
    "addr:postcode": "53123",
    "addr:street": "Rochusstraße",
    "bulk_purchase": "yes",
    "email": "info@freikost.de",
    "fax": "+49 228 9669 0332",
    "name": "Freikost Deinet",
    "opening_hours": "Mo-Fr 09:00-18:30; Sa 09:00-14:00; Su,PH off",
    "organic": "yes",
    "phone": "+49 228 9669 0330",
    "shop": "convenience",
    "website": "http://www.freikost.de",
    "wheelchair": "limited"
  }
},
{
  "type": "node",
  "id": 1619954233,
  "lat": 47.2269396,
  "lon": -1.5428944,
  "tags": {
    "addr:city": "Nantes",
    "addr:country": "FR",
    "addr:housenumber": "150",
    "addr:postcode": "44000",
    "addr:street": "Rue du Général Buat",
    "name": "Matthieu Delacroix",
    "shop": "bakery"
  }
},
{
  "type": "node",
  "id": 1619954291,
  "lat": 47.2273051,
  "lon": -1.5426051,
  "tags": {
    "addr:city": "Nantes",
    "addr:housenumber": "144",
    "addr:postcode": "44000",
    "addr:street": "Rue Général Buat",
    "contact:website": "www.leporcbonheur.com",
    "name": "Le Porc Bonheur",
    "shop": "butcher"
  }
},
{
  "type": "node",
  "id": 1619954323,
  "lat": 47.2269116,
  "lon": -1.5426869,
  "tags": {
    "addr:city": "Nantes",
    "addr:country": "FR",
    "addr:housenumber": "101",
    "addr:postcode": "44000",
    "addr:street": "Rue du Général Buat",
    "name": "Loïc Lusson",
    "shop": "butcher"
  }
},
{
  "type": "node",
  "id": 1688797566,
  "lat": 47.2524065,
  "lon": -1.4995435,
  "tags": {
    "addr:city": "Nantes",
    "addr:housenumber": "1",
    "addr:postcode": "44300",
    "addr:street": "Rue du Marché Commun",
    "bulk_purchase": "yes",
    "contact:email": "contact@fleuronbio44.com",
    "name": "Fleuron Bio",
    "opening_hours": "Mo 10:30-19:00; Tu-We 09:30-19:00; Th 09:00-19:30; Fr-Sa 09:30-19:00; Su off",
    "organic": "only",
    "shop": "convenience",
    "source": "Nantes Métropole 11/2011",
    "website": "https://www.fleuronbio44.com/"
  }
},
{
  "type": "node",
  "id": 1727920548,
  "lat": 47.2176945,
  "lon": -1.5552341,
  "tags": {
    "addr:city": "Nantes",
    "addr:housenumber": "3",
    "addr:postcode": "44000",
    "addr:street": "Rue de l'Hôtel de Ville",
    "bulk_purchase": "only",
    "description": "Boutique sans emballage. Produits alimentaires (farine,céréales,pâtes...), produits du quotidien (lessive…)",
    "email": "contact@obocal.com",
    "name": "Boutique Ô Bocal",
    "opening_hours": "Tu-Fr 10:00-19:30; Sa 10:00-19:00",
    "organic": "only",
    "shop": "convenience",
    "source": "Association Mieux trier à Nantes, 07/2016",
    "website": "http://www.obocal.com/"
  }
},
{
  "type": "node",
  "id": 1739077819,
  "lat": 42.9647447,
  "lon": 1.6092369,
  "tags": {
    "addr:city": "Foix",
    "addr:housenumber": "20",
    "addr:postcode": "09000",
    "addr:street": "Rue Saint-Vincent",
    "bulk_purchase": "yes",
    "name": "Biocoop Mirabelle",
    "operator": "Biocoop",
    "organic": "only",
    "shop": "supermarket",
    "website": "http://biocoop.fr/magasins-bio/Trouver-mon-magasin-Biocoop/Occitanie2/Ariege/BIOCOOP-MIRABELLE"
  }
},
{
  "type": "node",
  "id": 1786626414,
  "lat": 48.1135228,
  "lon": -1.6071457,
  "tags": {
    "addr:city": "Cesson-Sévigné",
    "addr:housenumber": "8",
    "addr:postcode": "35510",
    "addr:street": "Avenue des Peupliers",
    "brand:wikipedia": "fr:Biocoop",
    "bulk_purchase": "yes",
    "name": "Biocoop Scarabée Cesson",
    "opening_hours": "Mo-Fr 09:30-19:00",
    "operator": "Société coopérative d'alimentation rennaise biologique et écologique",
    "organic": "only",
    "phone": "+33 2 99 83 09 84",
    "shop": "supermarket",
    "source:addr": "Rennes Métropole",
    "source:addr:housenumber:ref": "44048",
    "source:addr:version": "2016-04-01",
    "website": "http://www.scarabee-biocoop.fr",
    "wheelchair": "yes"
  }
},
{
  "type": "node",
  "id": 1888009599,
  "lat": 48.5446251,
  "lon": 7.7410065,
  "tags": {
    "bulk_purchase": "yes",
    "name": "Auchan Illkirch",
    "operator": "Auchan",
    "shop": "supermarket"
  }
},
{
  "type": "node",
  "id": 1910398310,
  "lat": 47.5604537,
  "lon": -2.5075932,
  "tags": {
    "addr:city": "Muzillac",
    "addr:postcode": "56190",
    "brand": "Biocoop",
    "brand:wikidata": "Q2904039",
    "brand:wikipedia": "fr:Biocoop",
    "bulk_purchase": "yes",
    "name": "Biocoop Le Panier Bio",
    "operator": "Panier Bio",
    "organic": "only",
    "phone": "+33 2 97 45 60 70",
    "shop": "supermarket",
    "source": "connaissance personnelle",
    "website": "http://biocooplepanierbio.com"
  }
},
{
  "type": "node",
  "id": 2086186228,
  "lat": 47.8699692,
  "lon": -3.5919584,
  "tags": {
    "addr:city": "Mellac",
    "addr:housenumber": "27",
    "addr:postcode": "29300",
    "addr:street": "Rue Pierre Gilles de Gennes",
    "bulk_purchase": "yes",
    "name": "Biocoop Les 7 Épis",
    "opening_hours": "Mo-Sa 09:30-19:00",
    "operator": "Les 7 Épis",
    "organic": "only",
    "phone": "+33 2 98 09 07 72",
    "shop": "supermarket",
    "website": "https://www.les7epis.fr/"
  }
},
{
  "type": "node",
  "id": 2108864449,
  "lat": 47.2910573,
  "lon": -2.2108191,
  "tags": {
    "addr:city": "Trignac",
    "addr:postcode": "44570",
    "addr:street": "Rue des Aigrettes",
    "bulk_purchase": "yes",
    "name": "Les Hameaux Bio Biocoop Trignac",
    "opening_hours": "Mo-Sa 09:30-19:15; Su off",
    "organic": "only",
    "shop": "supermarket",
    "website": "http://www.leshameauxbio.fr/magasins/o%C3%B9-sommes-nous/trignac/"
  }
},
{
  "type": "node",
  "id": 2255955928,
  "lat": 47.2175592,
  "lon": -1.5520688,
  "tags": {
    "addr:city": "Nantes",
    "addr:housenumber": "18",
    "addr:postcode": "44000",
    "addr:street": "Rue de Verdun",
    "contact:city": "Nantes",
    "contact:country": "FR",
    "contact:housenumber": "1",
    "contact:postcode": "44000",
    "contact:street": "Rue Saint-Denis",
    "contact:website": "http://bionant.net/",
    "name": "bio-Nant'",
    "organic": "only",
    "shop": "greengrocer"
  }
},
{
  "type": "node",
  "id": 2258874081,
  "lat": 47.2158933,
  "lon": -1.5549826,
  "tags": {
    "addr:city": "Nantes",
    "addr:housenumber": "4",
    "addr:postcode": "44000",
    "addr:street": "Rue des Carmes",
    "contact:city": "Nantes",
    "contact:country": "FR",
    "contact:housenumber": "8",
    "contact:postcode": "44000",
    "contact:street": "Rue des Carmes",
    "name": "Leonidas",
    "opening_hours": "Tu-Sa 10:00-19:00",
    "shop": "confectionery"
  }
},
{
  "type": "node",
  "id": 2258874082,
  "lat": 47.2165132,
  "lon": -1.5550782,
  "tags": {
    "addr:city": "Nantes",
    "addr:housenumber": "5",
    "addr:postcode": "44000",
    "addr:street": "Rue des Bons Français",
    "amenity": "cafe",
    "contact:city": "Nantes",
    "contact:country": "FR",
    "contact:housenumber": "5",
    "contact:postcode": "44000",
    "contact:street": "Rue des Bons Français",
    "name": "Mango"
  }
},
{
  "type": "node",
  "id": 2258874087,
  "lat": 47.2164559,
  "lon": -1.5552468,
  "tags": {
    "addr:city": "Nantes",
    "addr:housenumber": "22",
    "addr:postcode": "44000",
    "addr:street": "Rue des Carmes",
    "contact:city": "Nantes",
    "contact:country": "FR",
    "contact:housenumber": "22",
    "contact:postcode": "44000",
    "contact:street": "Rue des Carmes",
    "name": "Sources",
    "opening_hours": "mon off; tue-sat 10:00-19:30; sun off",
    "shop": "deli"
  }
},
{
  "type": "node",
  "id": 2289128176,
  "lat": 47.2148493,
  "lon": -1.5538938,
  "tags": {
    "addr:city": "Nantes",
    "addr:housenumber": "3",
    "addr:postcode": "44000",
    "addr:street": "Rue du Bouffay",
    "contact:city": "Nantes",
    "contact:country": "FR",
    "contact:housenumber": "3",
    "contact:postcode": "44000",
    "contact:street": "Rue du Bouffay",
    "name": "Boucherie du Bouffay",
    "shop": "butcher"
  }
},
{
  "type": "node",
  "id": 2320443633,
  "lat": 47.2151685,
  "lon": -1.5527066,
  "tags": {
    "addr:city": "Nantes",
    "addr:housenumber": "6",
    "addr:postcode": "44000",
    "addr:street": "Rue des Échevins",
    "contact:city": "Nantes",
    "contact:country": "FR",
    "contact:housenumber": "6",
    "contact:postcode": "44000",
    "contact:street": "Rue des Échevins",
    "contact:website": "http://www.lebouffay-spagnol.fr/",
    "name": "Le Bouffay Spañol",
    "origin": "spanish",
    "shop": "deli"
  }
},
{
  "type": "node",
  "id": 2333397301,
  "lat": 48.8901546,
  "lon": 2.3614003,
  "tags": {
    "amenity": "pub",
    "bulk_purchase": "yes",
    "name": "En Vrac",
    "opening_hours": "Mo 17:00-21:00; Tu-Sa 10:00-22:00; Su 10:00-21:00",
    "restaurant": "yes",
    "shop": "alcohol",
    "website": "http://www.vinenvrac.fr/"
  }
},
{
  "type": "node",
  "id": 2393205127,
  "lat": 47.2162797,
  "lon": -1.5521914,
  "tags": {
    "addr:city": "Nantes",
    "addr:housenumber": "12",
    "addr:postcode": "44000",
    "addr:street": "Rue du Château",
    "amenity": "restaurant",
    "capacity": "45",
    "contact:city": "Nantes",
    "contact:country": "FR",
    "contact:housenumber": "12",
    "contact:postcode": "44000",
    "contact:street": "Rue du Château",
    "cuisine": "french",
    "name": "Dînette",
    "opening_hours": "Mo-Su 12:00-19:00; Tu off",
    "phone": "+33 2 51 82 79 13",
    "smoking": "outside",
    "website": "https://www.facebook.com/dinettenantes/",
    "wheelchair": "limited"
  }
},
{
  "type": "node",
  "id": 2416353080,
  "lat": 47.1279578,
  "lon": -2.1233429,
  "tags": {
    "addr:city": "Pornic",
    "addr:housenumber": "1",
    "addr:postcode": "44210",
    "addr:street": "Rue du traité de Lisbonne",
    "bulk_purchase": "yes",
    "name": "Les Hameaux Bio Biocoop Pornic",
    "opening_hours": "Mo-Sa 09:30-19:15; Su off",
    "organic": "only",
    "shop": "supermarket",
    "website": "http://www.leshameauxbio.fr/magasins/o%C3%B9-sommes-nous/pornic/"
  }
},
{
  "type": "node",
  "id": 2458144305,
  "lat": 43.6030175,
  "lon": 1.4442396,
  "tags": {
    "addr:city": "Toulouse",
    "addr:postcode": "31000",
    "addr:street": "rue Baour-Lormian",
    "bulk_purchase": "yes",
    "contact:housenumber": "7",
    "cuisine": "regional",
    "currency:XLT": "SVLT",
    "email": "bonjour@ceci-et-cela.fr",
    "name": "Ceci & cela",
    "opening_hours": "Mo 15:00-19:00; Tu-Sa 10:00-20:00",
    "organic": "yes",
    "payment:cash:XLT-SVLT": "yes",
    "phone": "+33 5 82 74 90 31",
    "ref:FR:NAF": "4711B",
    "ref:FR:SIRET": "81945850600014",
    "shop": "convenience",
    "source": "knowledge",
    "website": "http://www.ceci-et-cela.fr/"
  }
},
{
  "type": "node",
  "id": 2472326806,
  "lat": 44.4127116,
  "lon": 4.3710740,
  "tags": {
    "addr:city": "Vallon-Pont-d'Arc",
    "addr:postcode": "07150",
    "addr:street": "Allée des Chênes",
    "bulk_purchase": "yes",
    "name": "Biocoop La maison du Bio",
    "opening_hours": "Mo-Sa 08:30-12:30,15:00-19:00",
    "organic": "only",
    "shop": "supermarket",
    "website": "http://biocoop.fr/magasins-bio/Trouver-mon-magasin-Biocoop/Auvergne-Rhone-Alpes/Ardeche/BIOCOOP-LA-MAISON-DU-BIO"
  }
},
{
  "type": "node",
  "id": 2485095784,
  "lat": 47.2160389,
  "lon": -1.5530568,
  "tags": {
    "addr:city": "Nantes",
    "addr:housenumber": "12",
    "addr:postcode": "44000",
    "addr:street": "Place du Pilori",
    "amenity": "fast_food",
    "contact:city": "Nantes",
    "contact:country": "FR",
    "contact:housenumber": "12",
    "contact:postcode": "44000",
    "contact:street": "Place du Pilori",
    "cuisine": "sandwich",
    "name": "La Tartinerie",
    "takeaway": "yes",
    "wheelchair": "yes"
  }
},
{
  "type": "node",
  "id": 2504104917,
  "lat": 45.8299523,
  "lon": 1.2556377,
  "tags": {
    "addr:street": "Rue Othon Péconnet",
    "bulk_purchase": "only",
    "change:XLT-PELU": "yes",
    "contact:phone": "+335 55 33 58 97",
    "contact:website": "http://daybyday-shop.com/magasin/limoges",
    "currency:XLT": "PELU",
    "name": "Day by Day",
    "opening_hours": "Tu-Sa 09:30-13:00,14:30-19:30",
    "operator": "Day by Day",
    "payment:cash:XLT-PELU": "yes",
    "shop": "convenience"
  }
},
{
  "type": "node",
  "id": 2583958955,
  "lat": 47.2066461,
  "lon": -1.5491679,
  "tags": {
    "addr:city": "Nantes",
    "addr:housenumber": "8",
    "addr:postcode": "44200",
    "addr:street": "Rue Grande Biesse",
    "amenity": "restaurant",
    "capacity": "30",
    "cuisine": "bistro",
    "name": "La Grande Barge",
    "outdoor_seating": "yes",
    "takeaway": "yes"
  }
},
{
  "type": "node",
  "id": 2607658264,
  "lat": 47.2174721,
  "lon": -1.5517781,
  "tags": {
    "addr:city": "Nantes",
    "addr:housenumber": "15",
    "addr:postcode": "44000",
    "addr:street": "Rue de Verdun",
    "contact:city": "Nantes",
    "contact:country": "FR",
    "contact:housenumber": "15",
    "contact:postcode": "44000",
    "contact:street": "Rue de Verdun",
    "name": "La Crêmerie des Carmélites",
    "shop": "cheese"
  }
},
{
  "type": "node",
  "id": 2607658274,
  "lat": 47.2173353,
  "lon": -1.5520038,
  "tags": {
    "addr:city": "Nantes",
    "addr:housenumber": "21",
    "addr:postcode": "44000",
    "addr:street": "Rue de Verdun",
    "contact:city": "Nantes",
    "contact:country": "FR",
    "contact:housenumber": "21",
    "contact:phone": "+33 2 40 89 06 71",
    "contact:postcode": "44000",
    "contact:street": "Rue de Verdun",
    "contact:website": "http://www.songcomptoir.fr",
    "name": "OLIBABA",
    "shop": "convenience"
  }
},
{
  "type": "node",
  "id": 2672093889,
  "lat": 47.3726034,
  "lon": -1.9319780,
  "tags": {
    "addr:city": "Savenay",
    "addr:postcode": "44260",
    "addr:street": "Les Fretauderies",
    "brand": "Biocoop",
    "bulk_purchase": "yes",
    "name": "Biocoop Le Sillon Bio",
    "opening_hours": "Mo-Th 09:00-13:00, 14:30-19:00; Fr-Sa 09:00-19:00; Su off",
    "operator": "Le Sillon Bio",
    "organic": "only",
    "shop": "supermarket",
    "website": "http://www.lesillonbio.com/"
  }
},
{
  "type": "node",
  "id": 2696131012,
  "lat": 45.7474467,
  "lon": -0.6733879,
  "tags": {
    "addr:city": "Saintes",
    "addr:housenumber": "4",
    "addr:postcode": "17100",
    "addr:street": "Rue du Champ de Tir",
    "bulk_purchase": "yes",
    "name": "Biocoop",
    "organic": "only",
    "shop": "supermarket",
    "website": "http://www.biocoopdupayssanton.fr/"
  }
},
{
  "type": "node",
  "id": 2759353718,
  "lat": 47.2122712,
  "lon": -1.5560079,
  "tags": {
    "addr:city": "Nantes",
    "addr:housenumber": "11",
    "addr:postcode": "44000",
    "addr:street": "Quai Turenne",
    "amenity": "restaurant",
    "contact:city": "Nantes",
    "contact:facebook": "https://www.facebook.com/totumcantinebio",
    "contact:housenumber": "11",
    "contact:instagram": "totum_cantine_bio",
    "contact:phone": "+33 6 10 53 22 20",
    "contact:postcode": "44000",
    "contact:street": "Quai Turenne",
    "contact:twitter": "@totumcantinebio",
    "contact:website": "http://www.totumcantine.bio",
    "diet:gluten_free": "only",
    "diet:vegan": "only",
    "diet:vegetarian": "yes",
    "name": "Totum ― cantine bio",
    "opening_hours": "Tu-Fr 10:00-19:00; Sa 10:00-21:30",
    "organic": "only",
    "outdoor_seating": "yes",
    "takeaway": "yes",
    "toilets:wheelchair": "no",
    "wheelchair": "no"
  }
},
{
  "type": "node",
  "id": 2768073037,
  "lat": 43.1875454,
  "lon": 3.0041921,
  "tags": {
    "addr:city": "Narbonne",
    "addr:housenumber": "36A",
    "addr:postcode": "11100",
    "addr:street": "Boulevard Marcel Sembat",
    "bulk_purchase": "yes",
    "name": "Biocoop Terrabio Centre",
    "operator": "Biocoop",
    "organic": "only",
    "shop": "supermarket",
    "website": "http://www.biocoop-narbonne.com/"
  }
},
{
  "type": "node",
  "id": 2909745301,
  "lat": 42.9821566,
  "lon": 1.1498869,
  "tags": {
    "addr:city": "Saint-Girons",
    "addr:housenumber": "15",
    "addr:postcode": "09200",
    "addr:street": "Avenue d Aulot",
    "bulk_purchase": "yes",
    "name": "Biocoop Bio's Faire",
    "organic": "only",
    "shop": "supermarket",
    "website": "http://biocoop.fr/magasins-bio/Trouver-mon-magasin-Biocoop/Occitanie2/Ariege/BIO-S-FAIRE"
  }
},
{
  "type": "node",
  "id": 2976418012,
  "lat": 44.2937442,
  "lon": 2.5608637,
  "tags": {
    "addr:city": "Luc-la-Primaube",
    "addr:housenumber": "32",
    "addr:postcode": "12450",
    "addr:street": "Place de l'Étoile",
    "bulk_purchase": "yes",
    "name": "Biocoop Prim'Nature",
    "note": "Magasin de produits bio.",
    "opening_hours": "Tu-Sa 09:30-12:00,14:00-19:00",
    "organic": "only",
    "phone": "+33 5 65 47 07 93",
    "shop": "convenience",
    "website": "https://www.biocoop.fr/magasins-bio/Trouver-mon-magasin-Biocoop/Occitanie2/Aveyron/BIOCOOP-LA-PRIMAUBE"
  }
},
{
  "type": "node",
  "id": 3054272792,
  "lat": 48.8734246,
  "lon": 2.3707684,
  "tags": {
    "bulk_purchase": "yes",
    "contact:website": "http://latetedanslesolives.com/laboutique",
    "name": "La tête dans les olives",
    "opening_hours": "Tu-Fr 14:00-19:00; Sa 10:00-13:00,14:00-19:00",
    "shop": "deli"
  }
},
{
  "type": "node",
  "id": 3074632873,
  "lat": 46.1747434,
  "lon": -1.1605985,
  "tags": {
    "addr:city": "Lagord",
    "addr:housenumber": "297",
    "addr:postcode": "17140",
    "addr:street": "Avenue des Corsaires",
    "bulk_purchase": "yes",
    "name": "Biocoop La Rochelle Nord",
    "organic": "only",
    "shop": "supermarket",
    "website": "http://larochelle-nord.biocoop.net"
  }
},
{
  "type": "node",
  "id": 3076501374,
  "lat": 43.8207197,
  "lon": 5.7936504,
  "tags": {
    "addr:city": "Manosque",
    "addr:postcode": "04100",
    "addr:street": "Avenue de la Libération",
    "bulk_purchase": "yes",
    "change:XLT-ROUE": "yes",
    "currency:XLT": "ROUE",
    "name": "Biocoop - Le Blé en Herbe",
    "organic": "only",
    "shop": "supermarket",
    "website": "http://lebleenherbe.biocoop.net/"
  }
},
{
  "type": "node",
  "id": 3094180230,
  "lat": 47.2166901,
  "lon": -1.5554971,
  "tags": {
    "addr:city": "Nantes",
    "addr:housenumber": "1-3",
    "addr:postcode": "44000",
    "addr:street": "Rue Saint-Léonard",
    "contact:city": "Nantes",
    "contact:country": "FR",
    "contact:housenumber": "3",
    "contact:postcode": "44000",
    "contact:street": "Rue Saint-Léonard",
    "contact:website": "http://www.cafeclavreul.com",
    "craft": "coffee_roaster",
    "name": "Au Bon Café CLAVREUL",
    "shop": "coffee"
  }
},
{
  "type": "node",
  "id": 3097016385,
  "lat": 47.2541524,
  "lon": -1.6172077,
  "tags": {
    "addr:city": "Orvault",
    "addr:country": "FR",
    "addr:housenumber": "8",
    "addr:postcode": "44700",
    "addr:street": "Rue du Commandant Charcot",
    "bulk_purchase": "yes",
    "contact:phone": "+33 2 40 63 42 43",
    "fair_trade": "yes",
    "name": "Biocoop",
    "note": "Produits Bio",
    "opening_hours": "Mo-Fr 09:30-19:30; Sa 09:30-19:00; Su off",
    "organic": "only",
    "payment:cash": "yes",
    "payment:credit_cards": "yes",
    "payment:mastercard": "yes",
    "payment:visa": "yes",
    "shop": "supermarket",
    "website": "https://www.biocoop.fr/magasins-bio/Trouver-mon-magasin-Biocoop/Pays-de-la-Loire/Loire-Atlantique/BIOCOOP-NANTES-ORVAULT",
    "wheelchair": "yes"
  }
},
{
  "type": "node",
  "id": 3097043664,
  "lat": 47.2041496,
  "lon": -1.5504689,
  "tags": {
    "addr:city": "Nantes",
    "addr:country": "FR",
    "addr:housenumber": "17",
    "addr:postcode": "44200",
    "addr:street": "Boulevard Gustave Roch",
    "bulk_purchase": "yes",
    "contact:phone": "+33 2 40 48 55 67",
    "contact:website": "https://www.biocoop.fr/magasins-bio/Trouver-mon-magasin-Biocoop/Pays-de-la-Loire/Loire-Atlantique/BIOCOOP-NANTES-REPUBLIQUE",
    "fair_trade": "yes",
    "name": "Biocoop",
    "opening_hours": "Mo 12:00-19:30; Tu-Fr 09:30-19:30; Sa 09:30-19:00",
    "organic": "only",
    "payment:cash": "yes",
    "payment:credit_cards": "yes",
    "payment:mastercard": "yes",
    "payment:visa": "yes",
    "shop": "supermarket",
    "wheelchair": "yes"
  }
},
{
  "type": "node",
  "id": 3125795830,
  "lat": 47.2126766,
  "lon": -1.5592506,
  "tags": {
    "addr:city": "Nantes",
    "addr:housenumber": "7",
    "addr:postcode": "44000",
    "addr:street": "Place de la Bourse",
    "amenity": "restaurant",
    "cuisine": "french",
    "name": "YOU!"
  }
},
{
  "type": "node",
  "id": 3181284286,
  "lat": 48.8477752,
  "lon": 2.3188691,
  "tags": {
    "addr:city": "Paris",
    "addr:housenumber": "70",
    "addr:postcode": "75007",
    "addr:street": "rue de sevres",
    "bulk_purchase": "only",
    "name": "Day by Day",
    "operator": "Day by Day",
    "shop": "convenience",
    "website": "http://daybyday-shop.com/"
  }
},
{
  "type": "node",
  "id": 3333942666,
  "lat": 47.0487570,
  "lon": -1.6347666,
  "tags": {
    "addr:city": "Saint-Philbert-de-Grand-Lieu",
    "addr:housenumber": "7",
    "addr:postcode": "44310",
    "addr:street": "Le moulin de la chaussée",
    "bulk_purchase": "yes",
    "name": "Biocoop du Lac",
    "opening_hours": "Mo 15:00-19:30; Tu-Sa 09:00-13:00,15:00-19:30",
    "organic": "yes",
    "shop": "convenience",
    "website": "https://www.biocoop.fr/magasins-bio/Trouver-mon-magasin-Biocoop/Pays-de-la-Loire/Loire-Atlantique/BIOCOOP-DU-LAC"
  }
},
{
  "type": "node",
  "id": 3409181065,
  "lat": 47.3755787,
  "lon": -1.1947395,
  "tags": {
    "addr:city": "Saint-Géréon",
    "addr:housenumber": "104",
    "addr:postcode": "44150",
    "addr:street": "Rue du Bocage",
    "bulk_purchase": "yes",
    "name": "Biocoop",
    "opening_hours": "Mo 14:00-19:00; Tu-Sa 09:00-12:30, 14:00-19:00; Su off",
    "organic": "only",
    "phone": "+33 2 40831925",
    "shop": "supermarket",
    "website": "http://www.biocoop-ancenis.fr/"
  }
},
{
  "type": "node",
  "id": 3470086335,
  "lat": 47.2395925,
  "lon": -1.5135479,
  "tags": {
    "addr:city": "Nantes",
    "addr:housenumber": "211",
    "addr:postcode": "44300",
    "addr:street": "Route de Sainte-Luce",
    "name": "La boule carré",
    "shop": "bakery"
  }
},
{
  "type": "node",
  "id": 3474743920,
  "lat": 47.2281879,
  "lon": -1.5417474,
  "tags": {
    "addr:city": "Nantes",
    "addr:housenumber": "120",
    "addr:postcode": "44000",
    "addr:street": "Rue Général Buat",
    "name": "Crèmerie Saint-Do",
    "shop": "dairy"
  }
},
{
  "type": "node",
  "id": 3474835769,
  "lat": 47.2280444,
  "lon": -1.5419010,
  "tags": {
    "addr:city": "Nantes",
    "addr:housenumber": "128",
    "addr:postcode": "44000",
    "addr:street": "Rue Général Buat",
    "name": "Couleur Chocolat",
    "shop": "chocolate",
    "source": "J'aime tes bocaux"
  }
},
{
  "type": "node",
  "id": 3474835770,
  "lat": 47.2279906,
  "lon": -1.5419386,
  "tags": {
    "addr:city": "Nantes",
    "addr:housenumber": "130",
    "addr:postcode": "44000",
    "addr:street": "Rue Général Buat",
    "name": "Le Verger de Saint-Do",
    "shop": "greengrocer"
  }
},
{
  "type": "node",
  "id": 3676423718,
  "lat": 47.2243684,
  "lon": -1.5501701,
  "tags": {
    "addr:city": "Nantes",
    "addr:housenumber": "14",
    "addr:postcode": "44000",
    "addr:street": "Rue Pitre Chevalier",
    "bulk_purchase": "yes",
    "name": "La Vie Claire",
    "opening_hours": "Mo 11:30-19:00; Tu-Sa 08:30-19:00; Su off",
    "organic": "only",
    "shop": "supermarket",
    "website": "http://www.lavieclaire.com/magasin-bio/nantes.html"
  }
},
{
  "type": "node",
  "id": 3683626198,
  "lat": 47.2119489,
  "lon": -1.5462896,
  "tags": {
    "addr:city": "Nantes",
    "addr:housenumber": "5",
    "addr:postcode": "44000",
    "addr:street": "Rue de Colmar",
    "amenity": "restaurant",
    "contact:facebook": "https://www.facebook.com/restaurantPapill",
    "contact:phone": "+33 6 03130504",
    "contact:twitter": "@Papill_Nantes",
    "craft": "caterer",
    "cuisine": "french",
    "name": "Papill'",
    "opening_hours": "Mo-Fr 11:30-14:30",
    "takeaway": "yes"
  }
},
{
  "type": "node",
  "id": 3792409253,
  "lat": 47.2611509,
  "lon": -1.5821251,
  "tags": {
    "addr:city": "Nantes",
    "addr:housenumber": "188",
    "addr:postcode": "44300",
    "addr:street": "Route de Rennes",
    "bulk_purchase": "yes",
    "name": "Biocoop",
    "opening_hours": "Mo-Fr 09:30-19:30; Sa 09:30-19:00; Su off",
    "operator": "Biocoop",
    "organic": "only",
    "shop": "supermarket",
    "website": "https://www.biocoop.fr/magasins-bio/Trouver-mon-magasin-Biocoop/Pays-de-la-Loire/Loire-Atlantique/BIOCOOP-DU-LAC"
  }
},
{
  "type": "node",
  "id": 3798285433,
  "lat": 47.2264688,
  "lon": -1.6386397,
  "tags": {
    "addr:city": "Saint-Herblain",
    "addr:housenumber": "332",
    "addr:postcode": "44800",
    "addr:street": "Boulevard Marcel Paul",
    "bulk_purchase": "yes",
    "name": "Biocoop Les Halles Nantes Ouest",
    "opening_hours": "Mo-Th 09:30-19:00; Fr-Sa 09:00-19:00; Su off",
    "organic": "only",
    "shop": "supermarket",
    "website": "http://stherblainleshalles.biocoop.net/"
  }
},
{
  "type": "node",
  "id": 3832040657,
  "lat": 51.9511131,
  "lon": 7.6248277,
  "tags": {
    "addr:housenumber": "52-54",
    "addr:postcode": "48153",
    "addr:street": "Hammer Straße",
    "bulk_purchase": "yes",
    "description": "unverpackt-Konzept",
    "name": "Einzelhandel - zum Wohlfüllen",
    "opening_hours": "Mo-Fr 09:30-19:00; Sa 10:00-17:00",
    "shop": "supermarket",
    "website": "http://www.einzelhandel.ms/"
  }
},
{
  "type": "node",
  "id": 3957016050,
  "lat": 51.9625841,
  "lon": 7.6446395,
  "tags": {
    "addr:city": "Münster",
    "addr:country": "DE",
    "addr:housenumber": "63",
    "addr:postcode": "48145",
    "addr:street": "Warendorfer Straße",
    "bulk_purchase": "yes",
    "name": "natürlich unverpackt",
    "opening_hours": "Mo-Fr 09:00-19:00; Sa 09:00-15:00",
    "phone": "+4925139779720",
    "shop": "convenience",
    "website": "http://www.natuerlich-unverpackt.de",
    "wheelchair": "yes"
  }
},
{
  "type": "node",
  "id": 4037785465,
  "lat": 48.1070402,
  "lon": -1.6712595,
  "tags": {
    "addr:city": "Rennes",
    "addr:housenumber": "30",
    "addr:postcode": "35000",
    "addr:street": "Rue Saint-Hélier",
    "bulk_purchase": "only",
    "contact:email": "daybyday.rennes@gmail.com",
    "name": "Day by day",
    "phone": "+33 9 67 55 09 15",
    "shop": "convenience",
    "website": "http://daybyday-shop.com"
  }
},
{
  "type": "node",
  "id": 4194827018,
  "lat": 43.8699278,
  "lon": -0.4904540,
  "tags": {
    "bulk_purchase": "yes",
    "name": "Le Marché de Léopold",
    "organic": "only",
    "shop": "supermarket",
    "source": "cadastre-dgi-fr source : Direction Générale des Impôts - Cadastre. Mise à jour : 2016"
  }
},
{
  "type": "node",
  "id": 4199637816,
  "lat": 47.2211715,
  "lon": -1.5578118,
  "tags": {
    "addr:city": "Nantes",
    "addr:postcode": "44000",
    "addr:street": "Rue Basse Porte",
    "name": "Talensac Marée",
    "shop": "seafood"
  }
},
{
  "type": "node",
  "id": 4201236594,
  "lat": 47.2211701,
  "lon": -1.5580034,
  "tags": {
    "addr:city": "Nantes",
    "addr:postcode": "44000",
    "addr:street": "Rue Basse Porte",
    "name": "Boucherie Biologique Nantaise",
    "organic": "yes",
    "shop": "butcher"
  }
},
{
  "type": "node",
  "id": 4201236610,
  "lat": 47.2212685,
  "lon": -1.5582387,
  "tags": {
    "addr:city": "Nantes",
    "addr:postcode": "44000",
    "addr:street": "Rue Basse Porte",
    "name": "Les Délices de Provence",
    "origin": "mediterranean",
    "shop": "deli"
  }
},
{
  "type": "node",
  "id": 4201925356,
  "lat": 49.7627515,
  "lon": 6.6491800,
  "tags": {
    "addr:city": "Trier",
    "addr:country": "DE",
    "addr:housenumber": "65",
    "addr:postcode": "54292",
    "addr:street": "Paulinstraße",
    "bulk_purchase": "yes",
    "name": "unverpackt Trier",
    "opening_hours": "Mo-Fr 09:00-19:00; Sa 10:00-16:00",
    "shop": "convenience",
    "website": "www.unverpackt-trier.de",
    "wheelchair": "yes"
  }
},
{
  "type": "node",
  "id": 4267907899,
  "lat": 47.3244071,
  "lon": -2.4109019,
  "tags": {
    "addr:city": "Guérande",
    "addr:postcode": "44350",
    "addr:street": "Rue de la Briquerie",
    "bulk_purchase": "yes",
    "name": "Les Hameaux Bio Biocoop Guérande",
    "opening_hours": "Mo-Sa 09:30-19:15; Su off",
    "operator": "Biocoop",
    "organic": "only",
    "shop": "supermarket",
    "website": "http://www.leshameauxbio.fr/nos-magasins/gu%C3%A9rande/"
  }
},
{
  "type": "node",
  "id": 4273599297,
  "lat": 47.7658256,
  "lon": -3.4021587,
  "tags": {
    "addr:city": "Lorient",
    "addr:housenumber": "2",
    "addr:postcode": "56100",
    "addr:street": "Rue Saint-Exupéry",
    "brand": "Biocoop",
    "brand:wikidata": "Q2904039",
    "brand:wikipedia": "fr:Biocoop",
    "bulk_purchase": "yes",
    "name": "Biocoop Les 7 Épis",
    "opening_hours": "Mo-Sa 09:30-19:00",
    "operator": "Les 7 Épis",
    "organic": "only",
    "phone": "+33 2 97 37 58 92",
    "shop": "supermarket",
    "start_date": "2016-07-08 12:00",
    "website": "https://www.les7epis.fr/",
    "wheelchair": "yes"
  }
},
{
  "type": "node",
  "id": 4273736092,
  "lat": 47.7498415,
  "lon": -3.3631879,
  "tags": {
    "addr:city": "Lorient",
    "addr:housenumber": "7",
    "addr:postcode": "56100",
    "addr:street": "Rue Vauban",
    "brand": "Biocoop",
    "brand:wikidata": "Q2904039",
    "brand:wikipedia": "fr:Biocoop",
    "bulk_purchase": "yes",
    "name": "Biocoop Les 7 Epis",
    "operator": "Les 7 Épis",
    "organic": "only",
    "phone": "+33 2 97 80 12 00",
    "shop": "supermarket",
    "start_date": "2016-06-17",
    "website": "www.les7epis.fr",
    "wheelchair": "yes"
  }
},
{
  "type": "node",
  "id": 4325221209,
  "lat": 43.3470333,
  "lon": 5.4515082,
  "tags": {
    "addr:city": "Marseille",
    "addr:housenumber": "135",
    "addr:postcode": "13013",
    "addr:street": "Boulevard Bara",
    "bulk_purchase": "yes",
    "name": "Biocoop Chateau Gombert",
    "operator": "Biocoop",
    "organic": "only",
    "shop": "supermarket",
    "website": "http://biocoop.fr/magasins-bio/Trouver-mon-magasin-Biocoop/Provence-Alpes-Cote-d-Azur/Bouches-du-Rhone/BIOCOOP-CHATEAU-GOMBERT"
  }
},
{
  "type": "node",
  "id": 4394780789,
  "lat": 47.2152113,
  "lon": -1.5532362,
  "tags": {
    "addr:city": "Nantes",
    "addr:housenumber": "6",
    "addr:postcode": "44000",
    "addr:street": "Rue de la Bâclerie",
    "name": "Sophie Backery",
    "name:fr": "Sophie Backery",
    "shop": "pastry"
  }
},
{
  "type": "node",
  "id": 4396149089,
  "lat": 47.2172562,
  "lon": -1.5574106,
  "tags": {
    "addr:city": "Nantes",
    "addr:housenumber": "23",
    "addr:postcode": "44000",
    "addr:street": "Allée d'Orléans",
    "brand": "Naturalia",
    "brand:wikidata": "Q3337081",
    "brand:wikipedia": "fr:Naturalia",
    "bulk_purchase": "yes",
    "contact:phone": "+33 2 40357540",
    "description": "Épicerie biologique et naturelle",
    "highway": "crossing",
    "name": "Naturalia",
    "opening_hours": "Mo-Sa 09:00-20:00; Su 09:00-13:30",
    "organic": "only",
    "shop": "convenience",
    "website": "https://magasins.naturalia.fr/produits-bio/nantes/3954/",
    "wheelchair": "yes"
  }
},
{
  "type": "node",
  "id": 4416898146,
  "lat": 47.2337591,
  "lon": -1.5859370,
  "tags": {
    "addr:city": "Saint-Herblain",
    "addr:housenumber": "34",
    "addr:postcode": "44800",
    "addr:street": "Rue des Plantes",
    "bulk_purchase": "yes",
    "name": "Chlorophylle Beauséjour",
    "opening_hours": "Mo-Sa 09:00-19:30; Su off",
    "organic": "only",
    "shop": "supermarket",
    "website": "http://www.chlorophylle-coop.com/"
  }
},
{
  "type": "node",
  "id": 4416911931,
  "lat": 47.1919208,
  "lon": -1.5824362,
  "tags": {
    "addr:city": "Rezé",
    "addr:housenumber": "18",
    "addr:postcode": "44400",
    "addr:street": "Rue Ordronneau",
    "bulk_purchase": "yes",
    "name": "Chlorophylle Beausud",
    "opening_hours": "Mo-Sa 09:00-19:30; Su off",
    "organic": "only",
    "shop": "supermarket",
    "website": "http://www.chlorophylle-coop.com/"
  }
},
{
  "type": "node",
  "id": 4436466656,
  "lat": 43.9540188,
  "lon": 2.8936953,
  "tags": {
    "addr:city": "Saint-Afrique",
    "addr:housenumber": "101",
    "addr:postcode": "12400",
    "addr:street": "Avenue Jean Jaurès",
    "bulk_purchase": "yes",
    "contact:website": "http://www.biocoop.fr/magasins-bio/Trouver-mon-magasin-Biocoop/Languedoc-Roussillon-Midi-Pyrenees/Aveyron/LOU-CUSSOU",
    "name": "Biocoop - Lou Cussou",
    "organic": "only",
    "shop": "supermarket",
    "source": "survey 2016",
    "website": "https://www.biocoop.fr/magasins-bio/Trouver-mon-magasin-Biocoop/Occitanie2/Aveyron/LOU-CUSSOU"
  }
},
{
  "type": "node",
  "id": 4472343487,
  "lat": 46.1075591,
  "lon": -1.1004666,
  "tags": {
    "addr:city": "Angoulins",
    "addr:postcode": "17690",
    "addr:street": "Avenue Albert Denis",
    "bulk_purchase": "yes",
    "name": "Biocoop La Rochelle Sud",
    "organic": "only",
    "shop": "supermarket",
    "website": "http://larochelle-sud.biocoop.net/"
  }
},
{
  "type": "node",
  "id": 4499730098,
  "lat": 47.2800523,
  "lon": -2.2156298,
  "tags": {
    "addr:city": "Saint-Nazaire",
    "addr:country": "FR",
    "addr:housenumber": "89",
    "addr:postcode": "44600",
    "addr:street": "Rue Jean Jaurès",
    "bulk_purchase": "yes",
    "name": "Les Hameaux Bio Biocoop Saint-Nazaire",
    "opening_hours": "Mo-Th 08:30-12:30, 14:30-19:15; Fr-Sa 08:30-19:15; Su off",
    "organic": "yes",
    "shop": "convenience",
    "website": "http://www.leshameauxbio.fr/magasins/o%C3%B9-sommes-nous/saint-nazaire/"
  }
},
{
  "type": "node",
  "id": 4510281883,
  "lat": 45.9729539,
  "lon": 5.3522790,
  "tags": {
    "addr:city": "Ambérieu-en-Bugey",
    "addr:housenumber": "186",
    "addr:postcode": "01500",
    "addr:street": "Rue Alexandre Bérard",
    "brand:wikidata": "Q2904039",
    "brand:wikipedia": "fr:Biocoop",
    "bulk_purchase": "yes",
    "name": "Biocoop",
    "opening_hours": "Mo-Sa 09:00-19:00",
    "operator": "Le Vert de Terre",
    "organic": "only",
    "phone": "+33 4 74 34 63 51",
    "shop": "supermarket",
    "website": "http://www.le-vert-de-terre.fr/"
  }
},
{
  "type": "node",
  "id": 4511623665,
  "lat": 43.6131122,
  "lon": 6.9705875,
  "tags": {
    "addr:city": "Mouans-Sartoux",
    "addr:housenumber": "609",
    "addr:postcode": "06370",
    "addr:street": "Route de la Roquette",
    "brand:wikidata": "Q2904039",
    "brand:wikipedia": "fr:Biocoop",
    "bulk_purchase": "yes",
    "name": "Biocoop Méditerranée",
    "operator": "Loïc Poillion, Patrick Louvet",
    "organic": "only",
    "phone": "+33 4 92991268",
    "shop": "supermarket",
    "source": "survey",
    "website": "http://www.biocoop.fr/magasins-bio/Trouver-mon-magasin-Biocoop/Provence-Alpes-Cote-d-Azur/Alpes-Maritimes/BIOCOOP-MEDITERRANEE",
    "wheelchair": "yes"
  }
},
{
  "type": "node",
  "id": 4512774457,
  "lat": 48.6831223,
  "lon": 6.1718647,
  "tags": {
    "addr:housenumber": "95",
    "bulk_purchase": "yes",
    "contact:facebook": "https://www.facebook.com/Le-Gramme-de-Folie-Nancy-1456223781079103/",
    "email": "legrammedefolie@bbox.fr",
    "name": "Le Gramme de Folie",
    "opening_hours": "Tu-Fr 10:00-13:00,15:00-19:00; Sa 10:00-19:00",
    "organic": "yes",
    "phone": "+33 9 86 20 75 29",
    "shop": "convenience",
    "source": "cadastre-dgi-fr source : Direction Générale des Impôts - Cadastre. Mise à jour : 2016",
    "wheelchair": "no"
  }
},
{
  "type": "node",
  "id": 4526138028,
  "lat": 48.8900868,
  "lon": 2.1973952,
  "tags": {
    "bulk_purchase": "only",
    "name": "Day by Day",
    "opening_hours": "Tu-Su 09:30-13:30, Tu-Sa 15:30-19:30",
    "operator": "Day by Day",
    "shop": "convenience",
    "source": "survey 2017",
    "website": "http://daybyday-shop.com/vrac-nanterre.html",
    "wheelchair": "yes"
  }
},
{
  "type": "node",
  "id": 4598296543,
  "lat": 48.5803297,
  "lon": 7.7576726,
  "tags": {
    "bulk_purchase": "only",
    "description": "épicerie de produits en vrac",
    "name": "Le Bocal",
    "opening_hours": "Tu-Fr 10:00-19:00, 09:00-18:00; Sa 10:00-17:00",
    "organic": "yes",
    "phone": "+33 3 88 36 70 61",
    "shop": "convenience",
    "source": "survey"
  }
},
{
  "type": "node",
  "id": 4611187790,
  "lat": 48.8574452,
  "lon": -0.8730951,
  "tags": {
    "addr:city": "Vire",
    "addr:housenumber": "550",
    "addr:postcode": "14500",
    "addr:street": "Avenue de Bischwiller",
    "brand:wikidata": "Q2904039",
    "bulk_purchase": "yes",
    "name": "Biocoop du Bocage",
    "operator": "Biocoop",
    "organic": "only",
    "phone": "+33 2 31 09 47 85",
    "shop": "supermarket",
    "website": "http://www.biocoop-vire.com",
    "wikipedia": "fr:Biocoop"
  }
},
{
  "type": "node",
  "id": 4614366023,
  "lat": 43.6977835,
  "lon": 7.2653639,
  "tags": {
    "addr:city": "Nice",
    "addr:housenumber": "2",
    "addr:postcode": "06000",
    "addr:street": "Place Grimaldi",
    "bulk_purchase": "yes",
    "description": "Magasin bio, snack bio",
    "name": "Biocoop Nice Grimaldi",
    "opening_hours": "Mo-Sa 09:30-19:30",
    "shop": "supermarket",
    "website": "https://www.instagram.com/biocoopnicegrimaldi"
  }
},
{
  "type": "node",
  "id": 4620360223,
  "lat": 48.5657412,
  "lon": 7.7590243,
  "tags": {
    "bulk_purchase": "only",
    "contact:website": "http://daybyday-shop.com/magasin/strasbourg",
    "name": "Day by Day",
    "opening_hours": "Tu-Fr 09:30-13:00, 15:00-19:30; Sa 08:30-13:00, 15:00-18:30",
    "organic": "yes",
    "ref:FR:SIRET": "81847068400015",
    "shop": "convenience",
    "source": "survey",
    "wheelchair": "no"
  }
},
{
  "type": "node",
  "id": 4627896622,
  "lat": 48.1110887,
  "lon": -1.6930689,
  "tags": {
    "addr:city": "Rennes",
    "addr:housenumber": "18",
    "addr:postcode": "35000",
    "addr:street": "Rue Papu",
    "brand:wikipedia": "fr:Biocoop",
    "bulk_purchase": "yes",
    "name": "Biocoop Scarabée Papu",
    "opening_hours": "Mo-Sa 09:30-19:30",
    "operator": "Société coopérative d'alimentation rennaise biologique et écologique",
    "organic": "only",
    "payment:cash": "yes",
    "payment:credit_cards": "yes",
    "payment:debit_cards": "yes",
    "phone": "+33 2 23 22 29 09",
    "shop": "supermarket",
    "source": "http://www.ouest-france.fr/bretagne/rennes-35000/commerce-scarabee-biocoop-ouvre-un-7e-magasin-rennes-4754670",
    "start_date": "2017-02-01",
    "website": "http://www.scarabee-biocoop.fr",
    "wheelchair": "yes"
  }
},
{
  "type": "node",
  "id": 4657132729,
  "lat": 47.0865666,
  "lon": -1.2623221,
  "tags": {
    "addr:city": "Gétigné",
    "addr:postcode": "44190",
    "bulk_purchase": "yes",
    "name": "Naturéo",
    "opening_hours": "Mo-Sa 09:30-19:30; Su off",
    "organic": "only",
    "shop": "convenience",
    "website": "http://natureo-bio.fr/magasin-getigne"
  }
},
{
  "type": "node",
  "id": 4688545391,
  "lat": 50.6266853,
  "lon": 3.0477330,
  "tags": {
    "bulk_purchase": "only",
    "contact:phone": "+33 3 20 07 62 93",
    "contact:website": "http://daybyday-shop.com/magasin/lille",
    "description": "mon épicerie en vrac",
    "name": "Day by Day",
    "opening_hours": "Tu-Sa 09:30-13:00,15:00-19:30, Su 09:25-13:30",
    "operator": "Day by Day",
    "shop": "convenience"
  }
},
{
  "type": "node",
  "id": 4688555892,
  "lat": 49.1152428,
  "lon": 6.1785568,
  "tags": {
    "bulk_purchase": "only",
    "contact:phone": "+33 3 72 39 54 22",
    "contact:website": "http://daybyday-shop.com/magasin/metz",
    "description": "Epicerie en vrac sans emballage. Produit alimentaire, vin, cosmétique et droguerie",
    "name": "Day by Day",
    "opening_hours": "Tu-Fr 09:30-13:30,15:00-19:00; Sa 09:30-19:00; Su 09:30-12:00",
    "operator": "Day by Day",
    "organic": "yes",
    "shop": "convenience"
  }
},
{
  "type": "node",
  "id": 4716617867,
  "lat": 43.1071771,
  "lon": 1.6288351,
  "tags": {
    "addr:city": "Pamiers",
    "addr:housenumber": "1",
    "addr:postcode": "09100",
    "addr:street": "Rue André Citroën",
    "bulk_purchase": "yes",
    "name": "Biocoop Les Myrtilles",
    "organic": "only",
    "shop": "supermarket",
    "website": "http://biocoop.fr/magasins-bio/Trouver-mon-magasin-Biocoop/Occitanie2/Ariege/BIOCOOP-LES-MYRTILLES"
  }
},
{
  "type": "node",
  "id": 4750862440,
  "lat": 47.2650899,
  "lon": -1.4876903,
  "tags": {
    "addr:city": "Sainte-Luce-sur-Loire",
    "addr:housenumber": "13",
    "addr:postcode": "44980",
    "addr:street": "Rue Denis Papin",
    "bulk_purchase": "yes",
    "name": "Chlorophylle - Bio Luce",
    "opening_hours": "Mo-Sa 09:00-19:30",
    "operator": "Chlorophylle",
    "organic": "only",
    "shop": "supermarket",
    "website": "http://www.chlorophylle-coop.com"
  }
},
{
  "type": "node",
  "id": 4769733116,
  "lat": 48.1064092,
  "lon": -1.6684960,
  "tags": {
    "addr:city": "Rennes",
    "addr:housenumber": "66",
    "addr:postcode": "35000",
    "addr:street": "Rue Saint-Hélier",
    "bulk_purchase": "yes",
    "delivery": "yes",
    "drive_through": "no",
    "email": "coqcinelle@laposte.net",
    "name": "Coqcinelle",
    "operator": "James Johney",
    "organic": "only",
    "phone": "+33 6 23 64 73 36",
    "shop": "supermarket",
    "website": "http://coqcinelle.fr",
    "wheelchair": "no"
  }
},
{
  "type": "node",
  "id": 4784308455,
  "lat": 48.0300899,
  "lon": -1.7591600,
  "tags": {
    "addr:city": "Bruz",
    "addr:housenumber": "5",
    "addr:postcode": "35170",
    "addr:street": "Rue de Gavrinis",
    "brand:wikipedia": "fr:Biocoop",
    "bulk_purchase": "yes",
    "email": "magasin.bruz@scarabee-biocoop.fr",
    "name": "Biocoop Scarabée Bruz",
    "name_1": "Scarabée Biocoop",
    "operator": "Société coopérative d'alimentation rennaise biologique et écologique",
    "organic": "only",
    "phone": "+33 2 57 87 15 32",
    "shop": "supermarket",
    "website": "http://www.scarabee-biocoop.fr",
    "wheelchair": "yes"
  }
},
{
  "type": "node",
  "id": 4786186872,
  "lat": 44.1858623,
  "lon": 5.9478285,
  "tags": {
    "addr:city": "Sisteron",
    "addr:housenumber": "52",
    "addr:postcode": "04200",
    "addr:street": "Avenue Jean Jaurès",
    "bulk_purchase": "yes",
    "change:XLT-ROUE": "yes",
    "currency:XLT": "ROUE",
    "name": "Biocoop Sisteron",
    "opening_hours": "Mo 14:30-19:00, Tu-Fr 09:00-13:00 14:30-19:00, Sa 09:00-19:00",
    "organic": "only",
    "shop": "supermarket",
    "website": "http://sisteron.biocoop.net/"
  }
},
{
  "type": "node",
  "id": 4829754273,
  "lat": 47.2143194,
  "lon": -1.5634232,
  "tags": {
    "addr:city": "Nantes",
    "addr:housenumber": "7",
    "addr:postcode": "44000",
    "addr:street": "Rue Franklin",
    "craft": "caterer",
    "name": "Brison",
    "opening_hours": "Mo-Sa 08:30-19:45; Su off",
    "phone": "+33 2 40 48 51 39",
    "website": "http://www.brisontraiteur.com/"
  }
},
{
  "type": "node",
  "id": 4868560094,
  "lat": 48.5824495,
  "lon": 7.7469604,
  "tags": {
    "branch": "Strasbourg marché aux grains",
    "brand": "Naturalia",
    "brand:wikidata": "Q3337081",
    "brand:wikipedia": "fr:Naturalia",
    "bulk_purchase": "yes",
    "contact:website": "http://magasins.naturalia.fr/produits-bio/strasbourg-marche-aux-grains/3921",
    "name": "Naturalia",
    "opening_hours": "Mo-Sa 09:00-20:00",
    "organic": "only",
    "ref:FR:SIRET": "30247464801704",
    "shop": "supermarket",
    "source": "survey",
    "wheelchair": "yes"
  }
},
{
  "type": "node",
  "id": 4897473688,
  "lat": 47.6478646,
  "lon": -2.7068504,
  "tags": {
    "addr:city": "Theix-Noyalo",
    "addr:housenumber": "4",
    "addr:postcode": "56450",
    "addr:street": "Rue Jacques Cartier",
    "bulk_purchase": "yes",
    "name": "Bio Golfe Theix",
    "organic": "only",
    "shop": "supermarket",
    "website": "http://www.biogolfe.org/bio-golfe-theix/"
  }
},
{
  "type": "node",
  "id": 4911467953,
  "lat": 43.6408244,
  "lon": 5.0972613,
  "tags": {
    "bulk_purchase": "only",
    "name": "Autrement Vrac",
    "opening_hours": "Tu-Sa 09:30-12:30,14:30-19:00",
    "organic": "only",
    "shop": "supermarket",
    "website": "http://www.autrementvrac.fr/"
  }
},
{
  "type": "node",
  "id": 4917847921,
  "lat": 47.2207118,
  "lon": -1.5486393,
  "tags": {
    "addr:city": "Nantes",
    "addr:housenumber": "66",
    "addr:postcode": "44000",
    "addr:street": "Rue Maréchal Joffre",
    "amenity": "restaurant",
    "cuisine": "asian",
    "name": "Thaigan",
    "name:fr": "Thaigan",
    "takeaway": "yes",
    "website": "https://www.facebook.com/thaigannantes/"
  }
},
{
  "type": "node",
  "id": 4941395643,
  "lat": 46.5787429,
  "lon": 0.3203743,
  "tags": {
    "bulk_purchase": "only",
    "contact:website": "http://leffetbocal.over-blog.com",
    "name": "L’effet bocal",
    "opening_hours": "Tu-Sa 09:30-19:30",
    "shop": "convenience"
  }
},
{
  "type": "node",
  "id": 4951415548,
  "lat": 44.4282924,
  "lon": 5.7181098,
  "tags": {
    "addr:city": "Serres",
    "addr:housenumber": "7",
    "addr:postcode": "05700",
    "addr:street": "Rue Marius Meyère",
    "bulk_purchase": "yes",
    "name": "Biocoop",
    "organic": "only",
    "shop": "supermarket"
  }
},
{
  "type": "node",
  "id": 4962546028,
  "lat": 49.2761931,
  "lon": -0.6845764,
  "tags": {
    "addr:city": "Saint-Vigor-Le-Grand",
    "addr:postcode": "14400",
    "addr:street": "Chemin de la Blêtre",
    "bulk_purchase": "yes",
    "description": "Organic food store",
    "name": "Biocoop Olaf",
    "opening_hours": "Mo 14:30-19:00; Tu-Th 09:30-13:00, 14:30-19:00, 09:00-18:00; Fr, Sa 09:30-19:00",
    "organic": "only",
    "phone": "+33231102704",
    "shop": "convenience",
    "website": "http://www.biocoopolaf.com"
  }
},
{
  "type": "node",
  "id": 5007901395,
  "lat": 50.9480079,
  "lon": 6.9217112,
  "tags": {
    "addr:city": "Köln",
    "addr:housenumber": "270",
    "addr:postcode": "50823",
    "addr:street": "Venloer Straße",
    "bulk_purchase": "yes",
    "email": "post@veedelskraemer.de",
    "name": "Veedelskrämer",
    "opening_hours": "Mo-Fr 10:00-13:00,14:00-19:00; Sa 10:00-16:00",
    "phone": "+49 221 16893806",
    "shop": "convenience",
    "website": "https://www.veedelskraemer.de/",
    "wheelchair": "yes"
  }
},
{
  "type": "node",
  "id": 5010220778,
  "lat": 49.1175192,
  "lon": 6.1781779,
  "tags": {
    "branch": "Metz Saint Jacques",
    "brand": "Naturalia",
    "brand:wikidata": "Q3337081",
    "brand:wikipedia": "fr:Naturalia",
    "bulk_purchase": "yes",
    "contact:website": "https://magasins.naturalia.fr/produits-bio/metz-saint-jacques/3903",
    "indoor": "yes",
    "name": "Naturalia",
    "opening_hours": "Mo-Sa 09:00-19:30",
    "organic": "only",
    "shop": "convenience",
    "source": "survey",
    "survey:date": "2017-07"
  }
},
{
  "type": "node",
  "id": 5036979181,
  "lat": 49.4400551,
  "lon": 1.1022221,
  "tags": {
    "addr:city": "Rouen",
    "addr:housenumber": "48",
    "addr:postcode": "76000",
    "addr:street": "Rue Armand Carrel",
    "bulk_purchase": "only",
    "contact:email": "daybyday.rouen@gmail.com",
    "contact:phone": "+33 2 27 08 31 75",
    "contact:website": "http://daybyday-shop.com",
    "name": "Day by Day",
    "operator": "Terre et Saveur",
    "organic": "no",
    "shop": "convenience"
  }
},
{
  "type": "node",
  "id": 5053854903,
  "lat": 47.2587736,
  "lon": -1.5012009,
  "tags": {
    "addr:city": "Nantes",
    "addr:housenumber": "19",
    "addr:postcode": "44300",
    "addr:street": "Rue du Marché Commun",
    "bulk_purchase": "yes",
    "description": "Alimentation biologique et éco-produits",
    "name": "Les Hameaux Bio Biocoop Nantes",
    "opening_hours": "Mo-Sa 09:30-19:30; Su off",
    "operator": "Biocoop",
    "organic": "only",
    "shop": "supermarket",
    "website": "http://www.leshameauxbio.fr/magasins/o%C3%B9-sommes-nous/nantes/"
  }
},
{
  "type": "node",
  "id": 5059888297,
  "lat": 45.9034157,
  "lon": 6.1268567,
  "tags": {
    "bulk_purchase": "yes",
    "name": "Biocoop Aquarius",
    "organic": "only",
    "shop": "convenience"
  }
},
{
  "type": "node",
  "id": 5066198364,
  "lat": 47.2112211,
  "lon": -1.6529343,
  "tags": {
    "addr:city": "Saint-Herblain",
    "addr:housenumber": "13",
    "addr:postcode": "44800",
    "addr:street": "Place de la Paix",
    "name": "Boucheries 44",
    "shop": "butcher"
  }
},
{
  "type": "node",
  "id": 5100862252,
  "lat": 49.1816626,
  "lon": -0.3603583,
  "tags": {
    "addr:city": "Caen",
    "addr:housenumber": "77",
    "addr:postcode": "14000",
    "addr:street": "Rue de Bernières",
    "brand": "Biocoop",
    "bulk_purchase": "yes",
    "contact:phone": "+33 2 31803051",
    "name": "Biocoop Passage Démogé",
    "opening_hours": "Mo-Sa 09:30-19:30",
    "organic": "only",
    "ref:FR:NAF": "4711C",
    "shop": "convenience",
    "website": "http://biocoop.fr/magasins-bio/Trouver-mon-magasin-Biocoop/Normandie/Calvados/BIOCOOP-PASSAGE-DEMOGE"
  }
},
{
  "type": "node",
  "id": 5132304814,
  "lat": 47.2838290,
  "lon": -1.5528676,
  "tags": {
    "addr:city": "La Chapelle sur Erdre",
    "addr:postcode": "44240",
    "addr:street": "Rue D'Utrecht",
    "bulk_purchase": "yes",
    "name": "Naturéo",
    "opening_hours": "Mo-Sa 09:30-20:00; Su off",
    "organic": "only",
    "shop": "supermarket",
    "website": "https://www.natureo-bio.fr/magasin-bio/la-chapelle-sur-erdre/"
  }
},
{
  "type": "node",
  "id": 5145048483,
  "lat": 41.4928743,
  "lon": 2.1386127,
  "tags": {
    "addr:city": "Cerdanyola del Vallès",
    "addr:housenumber": "21-23",
    "addr:postcode": "08290",
    "addr:street": "Passeig Cordelles",
    "addr:unit": "2",
    "bulk_purchase": "yes",
    "description": "Bulk food and spices",
    "email": "panxa.contenta@hotmail.com",
    "name": "Panxa Contenta",
    "opening_hours": "Mo-Sa 10:00-13:30; Mo-Fr 17:00-20:00; Su closed",
    "payment:cash": "yes",
    "payment:credit_cards": "yes",
    "phone": "+34 931 82 58 18",
    "shop": "supermarket",
    "website": "https://facebook.com/panxa.contenta.cerdanyola/"
  }
},
{
  "type": "node",
  "id": 5145052699,
  "lat": 41.4916468,
  "lon": 2.1417509,
  "tags": {
    "addr:city": "Cerdanyola del Vallès",
    "addr:housenumber": "74",
    "addr:postcode": "08290",
    "addr:street": "Carrer de Francesc Layret",
    "bulk_purchase": "yes",
    "description": "Bulk food and spices",
    "email": "elpicoti.cerdanyola@gmail.com",
    "name": "El picotí",
    "opening_hours": "Mo 17:00-20:30; Tu-Sa 9:00-14:00, 17:00-20:30",
    "phone": "+34 660 87 94 19",
    "shop": "supermarket",
    "website": "https://www.facebook.com/elpicoti"
  }
},
{
  "type": "node",
  "id": 5154982882,
  "lat": 43.4040904,
  "lon": -0.3862926,
  "tags": {
    "addr:city": "Sauvagnon",
    "addr:postcode": "64230",
    "addr:street": "Rue du Béarn",
    "addr:unit": "Place du champ de Foire",
    "bulk_purchase": "yes",
    "description": "Epicerie vrac, bio et local. Ateliers pour gagner en autonomie. Conférences/Projections pour échanger sur les chemins de la transition.",
    "email": "lahallepaysanne64@gmail.com",
    "name": "La Halle Paysanne 64",
    "opening_hours": "Mo-Fr 16:00-20:00; Sa 14:00-20:00",
    "organic": "yes",
    "phone": "+33 6 47 99 76 03",
    "shop": "convenience",
    "start_date": "25 Novembre 2017",
    "wheelchair": "yes"
  }
},
{
  "type": "node",
  "id": 5188912372,
  "lat": 51.5436100,
  "lon": -0.0758230,
  "tags": {
    "bulk_purchase": "only",
    "name": "Bulk Market",
    "shop": "convenience",
    "website": "https://www.bulkmarket.uk/"
  }
},
{
  "type": "node",
  "id": 5202232443,
  "lat": 50.6312625,
  "lon": 3.0544663,
  "tags": {
    "branch": "Lille Solférino",
    "bulk_purchase": "yes",
    "contact:website": "http://www.bio-c-bon.eu/fr/nos_magasins/bio-c-bon-lille-solferino",
    "name": "Bio c'Bon",
    "organic": "yes",
    "shop": "supermarket",
    "source": "survey",
    "survey:date": "2017-10"
  }
},
{
  "type": "node",
  "id": 5202943314,
  "lat": 41.3797898,
  "lon": 2.1619606,
  "tags": {
    "addr:city": "Barcelona",
    "addr:housenumber": "16",
    "addr:postcode": "08011",
    "addr:street": "Carrer del Comte d'Urgell",
    "bulk_purchase": "yes",
    "email": "info@elpagesdor.com",
    "name": "El Pages d'Or",
    "opening_hours": "Mo-Su 09:00-21:00",
    "phone": "+34 930 07 33 01",
    "shop": "supermarket",
    "website": "https://www.facebook.com/pagesdor"
  }
},
{
  "type": "node",
  "id": 5203044962,
  "lat": 41.3759466,
  "lon": 2.1536654,
  "tags": {
    "addr:city": "Barcelona",
    "addr:housenumber": "62",
    "addr:postcode": "08015",
    "addr:street": "Avinguda de Mistral",
    "bulk_purchase": "yes",
    "diet:vegan": "only",
    "email": "info@gransdelaterra.com",
    "name": "Grans de la Terra",
    "opening_hours": "Mo-Sa 10:00-21:30",
    "phone": "+34 936 11 61 86",
    "shop": "supermarket",
    "website": "http://www.gransdelaterra.com/"
  }
},
{
  "type": "node",
  "id": 5203180301,
  "lat": 41.3996311,
  "lon": 2.1541322,
  "tags": {
    "addr:city": "Barcelona",
    "addr:housenumber": "17",
    "addr:postcode": "08012",
    "addr:street": "Carrer de Sant Cristòfol",
    "bulk_purchase": "yes",
    "name": "Al gra",
    "opening_hours": "Mo-Fr 09:30-15:00; 17:00-20:30; Sa 09:30-15:00; Su closed",
    "phone": "+34 932 38 89 55",
    "shop": "supermarket",
    "website": "https://www.facebook.com/algrabcn"
  }
},
{
  "type": "node",
  "id": 5223678126,
  "lat": 47.9595240,
  "lon": -1.4953277,
  "tags": {
    "addr:city": "Janzé",
    "addr:housenumber": "25",
    "addr:postcode": "35150",
    "addr:street": "Rue Paul Painlevé",
    "bulk_purchase": "yes",
    "delivery": "no",
    "diet:vegan": "yes",
    "diet:vegetarian": "yes",
    "drive_through": "no",
    "email": "lecarrebiologique@gmail.com",
    "name": "Le Carré Biologique",
    "operator": "CB Janzé",
    "organic": "only",
    "phone": "+33 2 99 74 72 28",
    "shop": "supermarket",
    "website": "http://le-carre-biologique.fr"
  }
},
{
  "type": "node",
  "id": 5225492519,
  "lat": 47.6629075,
  "lon": -2.8014830,
  "tags": {
    "addr:city": "Ploeren",
    "addr:housenumber": "7",
    "addr:postcode": "56880",
    "addr:street": "Avenue Louis de Cadoudal",
    "bulk_purchase": "yes",
    "name": "Bio Golfe Luscanen",
    "organic": "only",
    "shop": "supermarket",
    "website": "http://www.biogolfe.org/bio-golfe-luscanen/"
  }
},
{
  "type": "node",
  "id": 5226961589,
  "lat": 47.2286219,
  "lon": -1.6343382,
  "tags": {
    "addr:city": "Saint Herblain",
    "addr:housenumber": "279",
    "addr:postcode": "44800",
    "addr:street": "Boulevard Marcel Paul",
    "bulk_purchase": "yes",
    "name": "Chlorophylle",
    "opening_hours": "Mo-Sa 09:00-19:30; Su off",
    "shop": "supermarket",
    "website": "http://www.chlorophylle-coop.com/"
  }
},
{
  "type": "node",
  "id": 5239347433,
  "lat": 45.8971882,
  "lon": 6.1131652,
  "tags": {
    "bulk_purchase": "only",
    "name": "Le local",
    "shop": "convenience",
    "website": "http://lelocal-epicerie.fr/"
  }
},
{
  "type": "node",
  "id": 5244957090,
  "lat": 44.6120317,
  "lon": 4.4096678,
  "tags": {
    "addr:city": "Saint-Didier-sous-Aubenas",
    "addr:housenumber": "970",
    "addr:postcode": "07200",
    "addr:street": "Route de Montélimar",
    "bulk_purchase": "yes",
    "name": "Biocoop Les Gatobio",
    "organic": "only",
    "shop": "supermarket",
    "website": "http://lesgatobio.biocoop.net"
  }
},
{
  "type": "node",
  "id": 5248675265,
  "lat": 41.3857346,
  "lon": 2.1828163,
  "tags": {
    "addr:city": "Barcelona",
    "addr:housenumber": "2",
    "addr:postcode": "08003",
    "addr:street": "Plaça Comercial",
    "bulk_purchase": "yes",
    "email": "info@casaperris.com",
    "name": "Casa Perris",
    "opening_hours": "Mo-Fr 08:00-20:00; Sa 08:30-20:00",
    "phone": "+34 933 19 55 48",
    "shop": "supermarket",
    "website": "http://www.casaperris.com"
  }
},
{
  "type": "node",
  "id": 5252737243,
  "lat": 46.8031941,
  "lon": 4.4508793,
  "tags": {
    "addr:city": "Le Creusot",
    "addr:housenumber": "183",
    "addr:postcode": "71200",
    "addr:street": "Rue du Maréchal Foch",
    "bulk_purchase": "only",
    "name": "Le Poids Gourmand",
    "shop": "convenience"
  }
},
{
  "type": "node",
  "id": 5254673803,
  "lat": 47.7999229,
  "lon": -3.4755078,
  "tags": {
    "addr:city": "Guidel",
    "addr:postcode": "56520",
    "addr:street": "Parc commercial des 5 chemins",
    "bulk_purchase": "yes",
    "name": "Biocoop Les 7 Épis",
    "opening_hours": "Tu-Th 09:30-13:00,15:00-19:00; Fr,Sa 09:30-19:00",
    "operator": "Les 7 Épis",
    "organic": "only",
    "phone": "+33 2 97 81 89 12",
    "shop": "supermarket",
    "start_date": "2017-11-29",
    "website": "http://www.les7epis.fr"
  }
},
{
  "type": "node",
  "id": 5277827989,
  "lat": 47.2167671,
  "lon": -1.5592915,
  "tags": {
    "addr:city": "Nantes",
    "addr:housenumber": "3",
    "addr:postcode": "44000",
    "addr:street": "Rue Pierre-Chéreau",
    "bulk_purchase": "only",
    "name": "Épicerie Day by Day",
    "opening_hours": "Tu-Sa 10:30-13:00,15:00-19:00",
    "organic": "yes",
    "shop": "convenience",
    "website": "http://daybyday-shop.com/magasin/nantes"
  }
},
{
  "type": "node",
  "id": 5311816160,
  "lat": 45.9487068,
  "lon": -0.9905357,
  "tags": {
    "bulk_purchase": "yes",
    "name": "Biocoop Rochefort",
    "organic": "only",
    "shop": "supermarket",
    "website": "http://www.biocoop-rochefort.com"
  }
},
{
  "type": "node",
  "id": 5333494928,
  "lat": 47.2574890,
  "lon": -2.3166586,
  "tags": {
    "addr:city": "Pornichet",
    "addr:housenumber": "4",
    "addr:postcode": "44380",
    "addr:street": "Avenue du Courtil Riel",
    "bulk_purchase": "yes",
    "name": "Les Hameaux Bio Biocoop Pornichet",
    "organic": "only",
    "shop": "supermarket",
    "website": "http://www.leshameauxbio.fr/magasins/o%C3%B9-sommes-nous/pornichet/"
  }
},
{
  "type": "node",
  "id": 5338061797,
  "lat": 48.1146955,
  "lon": -1.6573630,
  "tags": {
    "addr:city": "Rennes",
    "addr:housenumber": "131",
    "addr:postcode": "35000",
    "addr:street": "Rue de Paris",
    "brand:wikipedia": "fr:Biocoop",
    "bulk_purchase": "yes",
    "email": "magasin.paris@scarabee-biocoop.fr",
    "name": "Biocoop Scarabée Rue de Paris",
    "opening_hours": "Mo-Sa 09:30-19:30",
    "operator": "Scarabée Biocoop",
    "organic": "only",
    "payment:cash": "yes",
    "payment:coins": "yes",
    "payment:mastercard": "yes",
    "payment:visa": "yes",
    "phone": "+33 2 99 60 00 23",
    "shop": "convenience",
    "website": "http://scarabee-biocoop.fr"
  }
},
{
  "type": "node",
  "id": 5403722957,
  "lat": 43.9584738,
  "lon": 5.7769444,
  "tags": {
    "addr:city": "Forcalquier",
    "addr:housenumber": "5",
    "addr:postcode": "04300",
    "addr:street": "Avenue de Verdun",
    "bulk_purchase": "yes",
    "currency:XLT": "ROUE",
    "name": "Biocoop Jojoba",
    "organic": "only",
    "shop": "supermarket",
    "website": "http://biocoop.fr/magasins-bio/Trouver-mon-magasin-Biocoop/Provence-Alpes-Cote-d-Azur/Alpes-de-Haute-Provence/JOJOBA"
  }
},
{
  "type": "node",
  "id": 5407834233,
  "lat": 43.2987595,
  "lon": 5.3983641,
  "tags": {
    "bulk_purchase": "only",
    "name": "Day by day",
    "opening_hours": "Tu-Sa 09:30-13:00, 15:00-19:00",
    "organic": "yes",
    "shop": "convenience"
  }
},
{
  "type": "node",
  "id": 5409751735,
  "lat": 47.2939053,
  "lon": -1.3914448,
  "tags": {
    "addr:city": "Mauves-sur-Loire",
    "addr:housenumber": "1",
    "addr:postcode": "44470",
    "addr:street": "Rue Loquets",
    "bulk_purchase": "yes",
    "name": "L'Epicerie du Port",
    "opening_hours": "Mo 15:00-19:30; Tu-Fr 09:00-12:30, 15:00-19:45; Th off; Sa 09:00-12:30, 15:00-19:00; Su 09:30-12:30",
    "organic": "yes",
    "shop": "convenience",
    "website": "https://www.facebook.com/L%C3%A9picerie-du-port-574717069319717/"
  }
},
{
  "type": "node",
  "id": 5412170284,
  "lat": 47.2315637,
  "lon": -1.5744980,
  "tags": {
    "addr:city": "Nantes",
    "addr:housenumber": "42",
    "addr:postcode": "44100",
    "addr:street": "Boulevard Jean XXIII",
    "bulk_purchase": "only",
    "name": "Green Shopper",
    "opening_hours": "Mo 15:00-20:00; Tu-We 10:00-13:00, 17:00-19:00; Th 15:00-20:00; Fr 10:00-13:00, 17:00-19:00",
    "organic": "yes",
    "shop": "convenience",
    "website": "https://greenshopper.fr/"
  }
},
{
  "type": "node",
  "id": 5413237027,
  "lat": 47.2507053,
  "lon": -1.6166313,
  "tags": {
    "addr:city": "Orvault",
    "addr:housenumber": "290",
    "addr:postcode": "44706",
    "addr:street": "Route de Vannes",
    "bulk_purchase": "yes",
    "name": "Les Fermiers du coin",
    "opening_hours": "Tu-Fr 09:30-19:30; Sa 09:30-18:00; Su off",
    "organic": "yes",
    "shop": "convenience",
    "website": "http://www.lesfermiersducoin.fr/"
  }
},
{
  "type": "node",
  "id": 5414276240,
  "lat": 47.1037065,
  "lon": -1.2322024,
  "tags": {
    "addr:city": "Sèvremoine",
    "addr:housenumber": "14 bis",
    "addr:postcode": "49230",
    "addr:street": "Le Parveau",
    "bulk_purchase": "only",
    "contact:email": "casavrac@gmail.com",
    "description": "Boutique de vente en ligne et sur place de produits vrac avec ivraison ou retrait en boutique",
    "name": "CasaVrac",
    "opening_hours:url": "https://www.casavrac.com/horaires",
    "organic": "yes",
    "shop": "convenience",
    "website": "https://www.casavrac.com/"
  }
},
{
  "type": "node",
  "id": 5418567639,
  "lat": 47.5211878,
  "lon": -2.2869608,
  "tags": {
    "addr:city": "Nivillac",
    "addr:postcode": "56130",
    "addr:street": "Route de Redon-Saint Dolay",
    "bulk_purchase": "yes",
    "name": "O'Val en Vert",
    "opening_hours": "Mo 14:00-19:00; Tu-Sa 09:15-19:00; Su off",
    "organic": "yes",
    "shop": "convenience",
    "website": "http://ovalenvert.fr/"
  }
},
{
  "type": "node",
  "id": 5420284870,
  "lat": 47.1747231,
  "lon": -1.5193826,
  "tags": {
    "addr:city": "Vertou",
    "addr:housenumber": "3",
    "addr:postcode": "44120",
    "addr:street": "Place Pierre Desfossés",
    "bulk_purchase": "yes",
    "name": "Les coteaux nantais Vertou",
    "opening_hours": "Mo off; Tu-Sa 09:00-12:30, 15:00-18:30; Su off",
    "organic": "yes",
    "shop": "convenience",
    "website": "http://www.coteaux-nantais.com/fr/content/vente-directe"
  }
},
{
  "type": "node",
  "id": 5452060690,
  "lat": 50.9175650,
  "lon": 6.9604634,
  "tags": {
    "addr:city": "Köln",
    "addr:country": "DE",
    "addr:housenumber": "66",
    "addr:postcode": "50677",
    "addr:street": "Bonner Straße",
    "bulk_purchase": "yes",
    "email": "info@migori.de",
    "name": "migori",
    "opening_hours": "Mo-We 10:00-18:30; Th-Fr 10:00-20:00; Sa 10:00-16:00; Su,PH off",
    "organic": "yes",
    "phone": "+40 221 94246298",
    "shop": "convenience",
    "website": "http://migori.de/",
    "wheelchair": "yes"
  }
},
{
  "type": "node",
  "id": 5456625523,
  "lat": 47.2285765,
  "lon": -1.5413056,
  "tags": {
    "addr:city": "Nantes",
    "addr:housenumber": "118",
    "addr:postcode": "44000",
    "addr:street": "Rue Général Buat",
    "amenity": "fast_food",
    "cuisine": "kebab",
    "name": "Oudaîa",
    "source": "J'aime tes bocaux",
    "takeaway": "yes"
  }
},
{
  "type": "node",
  "id": 5456638652,
  "lat": 47.2285392,
  "lon": -1.5413402,
  "tags": {
    "addr:city": "Nantes",
    "addr:housenumber": "118",
    "addr:postcode": "44000",
    "addr:street": "Rue Général Buat",
    "name": "Boulangerie Rullier Patrice",
    "shop": "bakery",
    "source": "J'aime tes bocaux"
  }
},
{
  "type": "node",
  "id": 5459152854,
  "lat": 47.2142867,
  "lon": -1.5653107,
  "tags": {
    "addr:city": "Nantes",
    "addr:housenumber": "21",
    "addr:postcode": "44000",
    "addr:street": "Rue Racine",
    "name": "Du vert en ville",
    "organic": "only",
    "shop": "convenience",
    "source": "J'aime tes bocaux"
  }
},
{
  "type": "node",
  "id": 5460145598,
  "lat": 47.2196120,
  "lon": -1.5341746,
  "tags": {
    "addr:city": "Nantes",
    "addr:housenumber": "7",
    "addr:postcode": "44000",
    "addr:street": "Boulevard de Stalingrad",
    "amenity": "restaurant",
    "cuisine": "african",
    "name": "DOMORO"
  }
},
{
  "type": "node",
  "id": 5460210375,
  "lat": 47.2152348,
  "lon": -1.5582905,
  "tags": {
    "addr:city": "Nantes",
    "addr:housenumber": "4",
    "addr:postcode": "44000",
    "addr:street": "Rue de l'Arche Sèche",
    "name": "Théine",
    "shop": "tea"
  }
},
{
  "type": "node",
  "id": 5460269733,
  "lat": 47.2175599,
  "lon": -1.5516156,
  "tags": {
    "addr:city": "Nantes",
    "addr:housenumber": "13",
    "addr:postcode": "44000",
    "addr:street": "Rue Saint-Pierre",
    "name": "Albert & Léontine",
    "shop": "confectionery"
  }
},
{
  "type": "node",
  "id": 5460303725,
  "lat": 47.2163504,
  "lon": -1.5587986,
  "tags": {
    "addr:city": "Nantes",
    "addr:housenumber": "6",
    "addr:postcode": "44000",
    "addr:street": "Rue Guépin",
    "name": "Le Comptoir NanTHE du CAFE",
    "shop": "coffee"
  }
},
{
  "type": "node",
  "id": 5460362739,
  "lat": 47.2135328,
  "lon": -1.5628934,
  "tags": {
    "addr:city": "Nantes",
    "addr:housenumber": "2",
    "addr:postcode": "44000",
    "addr:street": "Rue Franklin",
    "name": "ThéÔphil",
    "shop": "tea"
  }
},
{
  "type": "node",
  "id": 5460375747,
  "lat": 47.2119373,
  "lon": -1.6529673,
  "tags": {
    "addr:city": "Saint-Herblain",
    "addr:housenumber": "24",
    "addr:postcode": "44800",
    "addr:street": "Rue Pierre Blard",
    "name": "L'Épi d'Ange",
    "shop": "bakery"
  }
},
{
  "type": "node",
  "id": 5460383333,
  "lat": 47.2113045,
  "lon": -1.6533486,
  "tags": {
    "addr:city": "Saint-Herblain",
    "addr:housenumber": "21",
    "addr:postcode": "44800",
    "addr:street": "Place de la Paix",
    "name": "Poissonerie des Arcades",
    "shop": "seafood"
  }
},
{
  "type": "node",
  "id": 5460390736,
  "lat": 47.1992687,
  "lon": -1.6709108,
  "tags": {
    "addr:city": "Indre",
    "addr:housenumber": "1",
    "addr:postcode": "44610",
    "addr:street": "Rue Albert Thomas",
    "amenity": "restaurant",
    "cuisine": "french",
    "name": "Le Ver Luisant"
  }
},
{
  "type": "node",
  "id": 5460433357,
  "lat": 47.2145602,
  "lon": -1.5551948,
  "tags": {
    "addr:city": "Nantes",
    "addr:housenumber": "9",
    "addr:postcode": "44000",
    "addr:street": "Rue du Vieil Hôpital",
    "amenity": "restaurant",
    "cuisine": "french",
    "name": "TREAT",
    "takeaway": "yes"
  }
},
{
  "type": "node",
  "id": 5460439635,
  "lat": 47.2198440,
  "lon": -1.5562527,
  "tags": {
    "addr:city": "Nantes",
    "addr:housenumber": "15",
    "addr:postcode": "44000",
    "addr:street": "Allée des Tanneurs",
    "amenity": "restaurant",
    "name": "Mon Bento"
  }
},
{
  "type": "node",
  "id": 5460448714,
  "lat": 47.2131916,
  "lon": -1.5455523,
  "tags": {
    "addr:city": "Nantes",
    "addr:housenumber": "4",
    "addr:postcode": "44000",
    "addr:street": "Rue de Jemmapes",
    "amenity": "restaurant",
    "name": "L'Atelier de la Cité"
  }
},
{
  "type": "node",
  "id": 5460452139,
  "lat": 47.2195343,
  "lon": -1.5566985,
  "tags": {
    "addr:city": "Nantes",
    "addr:housenumber": "12",
    "addr:postcode": "44000",
    "addr:street": "Allée des Tanneurs",
    "amenity": "fast_food",
    "name": "Restaurant VF"
  }
},
{
  "type": "node",
  "id": 5460462886,
  "lat": 47.3594699,
  "lon": -2.1861568,
  "tags": {
    "addr:city": "Saint-Malo-de-Guersac",
    "addr:housenumber": "3",
    "addr:postcode": "44720",
    "addr:street": "Rue Laënnec",
    "name": "La LocoMotive",
    "shop": "convenience"
  }
},
{
  "type": "node",
  "id": 5460468439,
  "lat": 47.2227312,
  "lon": -1.7090994,
  "tags": {
    "addr:city": "Couëron",
    "addr:postcode": "44220",
    "addr:street": "L'Angle",
    "name": "Ferme des Oeufs au Lait",
    "shop": "agrarian"
  }
},
{
  "type": "node",
  "id": 5464254259,
  "lat": 43.2977480,
  "lon": -0.3699491,
  "tags": {
    "addr:city": "Pau",
    "addr:housenumber": "23",
    "addr:postcode": "64000",
    "addr:street": "Rue Serviez",
    "bulk_purchase": "yes",
    "name": "La Maison du Savon de Marseille",
    "opening_hours": "Tu-Sa 10:00-19:00",
    "organic": "yes",
    "phone": "+335 59 72 96 68",
    "shop": "cosmetics",
    "website": "www.maison-du-savon.com"
  }
},
{
  "type": "node",
  "id": 5477873624,
  "lat": 47.2492184,
  "lon": -1.6116004,
  "tags": {
    "addr:city": "Orvault",
    "addr:housenumber": "272",
    "addr:postcode": "44700",
    "addr:street": "Route de Vannes",
    "bulk_purchase": "yes",
    "name": "L'Eau Vive",
    "opening_hours": "Mo-Sa 09:30-19:30",
    "organic": "only",
    "shop": "supermarket",
    "website": "http://www.eau-vive.com"
  }
},
{
  "type": "node",
  "id": 5518872681,
  "lat": 47.2223980,
  "lon": -1.7135231,
  "tags": {
    "addr:city": "Couëron",
    "addr:postcode": "44220",
    "addr:street": "Chemin du Chef de l'Eau",
    "name": "Ferme des Roches",
    "shop": "agrarian"
  }
},
{
  "type": "node",
  "id": 5527532034,
  "lat": 47.4544266,
  "lon": -0.2677625,
  "tags": {
    "addr:city": "Mazé",
    "addr:housenumber": "37",
    "addr:postcode": "49630",
    "addr:street": "Rue Principale",
    "bulk_purchase": "yes",
    "name": "Biocoop O'Rivieres",
    "operator": "Biocoop",
    "organic": "only",
    "shop": "supermarket",
    "website": "http://biocooporivieres-maze.biocoop.net/"
  }
},
{
  "type": "node",
  "id": 5528055528,
  "lat": 47.2070656,
  "lon": -1.5551622,
  "tags": {
    "addr:city": "Nantes",
    "addr:housenumber": "6",
    "addr:postcode": "44200",
    "addr:street": "Rue Louis Blanc",
    "amenity": "restaurant",
    "cuisine": "vegan;french;local",
    "name": "Petit b",
    "takeaway": "yes",
    "website": "https://www.facebook.com/petitbcafelibrairie/"
  }
},
{
  "type": "node",
  "id": 5536163901,
  "lat": 47.2760082,
  "lon": -2.2133227,
  "tags": {
    "addr:city": "Saint-Nazaire",
    "addr:housenumber": "17",
    "addr:postcode": "44600",
    "addr:street": "Avenue de la République",
    "name": "La Coop du Coin",
    "shop": "convenience",
    "website": "https://lacoopducoin-epicerie-cooperative-participative.fr/"
  }
},
{
  "type": "node",
  "id": 5544986170,
  "lat": 46.3033645,
  "lon": 6.0662352,
  "tags": {
    "addr:city": "Cessy",
    "addr:housenumber": "45",
    "addr:postcode": "01170",
    "addr:street": "Chemin du Journans",
    "bulk_purchase": "yes",
    "name": "Biocoop du Leman",
    "operator": "Biocoop",
    "organic": "only",
    "shop": "supermarket"
  }
},
{
  "type": "node",
  "id": 5556291527,
  "lat": 46.2030391,
  "lon": 5.2224964,
  "tags": {
    "addr:city": "Bourg-en-Bresse",
    "addr:housenumber": "43",
    "addr:postcode": "01000",
    "addr:street": "Avenue Alsace-Lorraine",
    "bulk_purchase": "yes",
    "name": "Biocoop Mag'Bio",
    "operator": "Biocoop",
    "organic": "only",
    "shop": "supermarket",
    "website": "https://www.biocoop.fr/magasins-bio/Trouver-mon-magasin-Biocoop/Auvergne-Rhone-Alpes/Ain/BIOCOOP-MAG-BIO-EDEN"
  }
},
{
  "type": "node",
  "id": 5556315474,
  "lat": 46.1283557,
  "lon": 5.8130403,
  "tags": {
    "addr:city": "Bellegarde-sur-Valserine",
    "addr:housenumber": "106",
    "addr:postcode": "01200",
    "addr:street": "Impasse de la Valserine",
    "bulk_purchase": "yes",
    "name": "Biocoop Valserine",
    "operator": "Biocoop",
    "organic": "only",
    "shop": "supermarket"
  }
},
{
  "type": "node",
  "id": 5556315475,
  "lat": 46.2063272,
  "lon": 5.2407258,
  "tags": {
    "addr:city": "Bourg-en-Bresse",
    "addr:housenumber": "10",
    "addr:postcode": "01000",
    "addr:street": "Boulevard John Kennedy",
    "bulk_purchase": "yes",
    "name": "Biocoop Mag'Bio",
    "operator": "Biocoop",
    "organic": "only",
    "shop": "supermarket",
    "website": "http://magbio.biocoop.net/"
  }
},
{
  "type": "node",
  "id": 5556315476,
  "lat": 45.9016733,
  "lon": 5.1991709,
  "tags": {
    "addr:city": "Meximieux",
    "addr:postcode": "01800",
    "addr:street": "Rue des Granges",
    "bulk_purchase": "yes",
    "name": "Terra Nat",
    "operator": "Biocoop",
    "organic": "only",
    "shop": "supermarket",
    "website": "http://terranatmeximieux.biocoop.net"
  }
},
{
  "type": "node",
  "id": 5557299433,
  "lat": 47.0960940,
  "lon": -1.8062200,
  "tags": {
    "addr:city": "Sainte-Pazanne",
    "addr:housenumber": "23",
    "addr:postcode": "44680",
    "addr:street": "Rue Roche Blanche",
    "bulk_purchase": "yes",
    "name": "Au jardin bioretz",
    "opening_hours": "Tu-Fr 09:00-12:30,13:30-19:00; Sa 09:00-12:30",
    "organic": "only",
    "shop": "agrarian",
    "website": "http://www.aujardinbioretz.com/"
  }
},
{
  "type": "node",
  "id": 5557346808,
  "lat": 49.3679329,
  "lon": 3.3167608,
  "tags": {
    "addr:city": "Soissons",
    "addr:postcode": "02200",
    "addr:street": "Rue Marcel Paul",
    "bulk_purchase": "yes",
    "name": "Au panier naturel",
    "operator": "Biocoop",
    "organic": "only",
    "shop": "supermarket",
    "source": "http://www.biocoop.fr",
    "website": "http://www.aupaniernaturel.fr"
  }
},
{
  "type": "node",
  "id": 5557346809,
  "lat": 49.8444328,
  "lon": 3.2950262,
  "tags": {
    "addr:city": "Saint-Quentin",
    "addr:housenumber": "13 bis",
    "addr:postcode": "02100",
    "addr:street": "Boulevard Gambetta",
    "bulk_purchase": "yes",
    "name": "La Vie Bio",
    "operator": "Biocoop",
    "organic": "only",
    "shop": "supermarket",
    "website": "http://www.laviebio-stq.fr/"
  }
},
{
  "type": "node",
  "id": 5557494246,
  "lat": 44.3865818,
  "lon": 6.6344756,
  "tags": {
    "addr:city": "Barcelonnette",
    "addr:housenumber": "52",
    "addr:postcode": "04400",
    "addr:street": "Allée des Pins",
    "bulk_purchase": "yes",
    "name": "Biocoop Barcelo",
    "operator": "Biocoop",
    "organic": "only",
    "shop": "supermarket",
    "website": "http://www.biocoop-barcelonnette.fr"
  }
},
{
  "type": "node",
  "id": 5557568484,
  "lat": 44.5597886,
  "lon": 6.0810065,
  "tags": {
    "addr:city": "Gap",
    "addr:housenumber": "13",
    "addr:postcode": "05000",
    "addr:street": "Rue Carnot",
    "bulk_purchase": "yes",
    "name": "Le Grenier Carnot",
    "organic": "only",
    "shop": "supermarket",
    "website": "http://www.legrenier-bio.fr"
  }
},
{
  "type": "node",
  "id": 5557568485,
  "lat": 44.5521380,
  "lon": 6.4887640,
  "tags": {
    "addr:city": "Embrun",
    "addr:postcode": "05200",
    "bulk_purchase": "yes",
    "name": "La Graine de Lin",
    "organic": "only",
    "shop": "supermarket",
    "website": "http://lagrainedelin.biocoop.net/"
  }
},
{
  "type": "node",
  "id": 5557568486,
  "lat": 44.4618209,
  "lon": 6.0546409,
  "tags": {
    "addr:city": "Tallard",
    "addr:housenumber": "14",
    "addr:postcode": "05130",
    "addr:street": "Place Cdt Dumont",
    "bulk_purchase": "yes",
    "name": "Biocoop Le Grenier Tallard",
    "organic": "only",
    "shop": "supermarket",
    "website": "http://biocoop.fr/magasins-bio/Trouver-mon-magasin-Biocoop/Provence-Alpes-Cote-d-Azur/Hautes-Alpes/BIOCOOP-LE-GRENIER-TALLARD"
  }
},
{
  "type": "node",
  "id": 5557568487,
  "lat": 44.2126463,
  "lon": 5.6989730,
  "tags": {
    "addr:city": "Éourres",
    "addr:postcode": "05300",
    "bulk_purchase": "yes",
    "name": "Biocoop Grain de Soleil",
    "organic": "only",
    "shop": "supermarket"
  }
},
{
  "type": "node",
  "id": 5557568488,
  "lat": 44.8850495,
  "lon": 6.6266402,
  "tags": {
    "addr:city": "Briançon",
    "addr:housenumber": "230",
    "addr:postcode": "05100",
    "addr:street": "Rue des Couteliers",
    "bulk_purchase": "yes",
    "name": "L'Epine Vinette  'Grand magasin'",
    "organic": "only",
    "shop": "supermarket",
    "website": "https://www.biocoop-epinevinette.com/"
  }
},
{
  "type": "node",
  "id": 5558974460,
  "lat": 48.3337416,
  "lon": 4.1043885,
  "tags": {
    "addr:city": "Lavau",
    "addr:postcode": "10150",
    "addr:street": "Lieu dit Les Dames Blanches",
    "bulk_purchase": "yes",
    "name": "Biocoop La Source",
    "organic": "only",
    "shop": "supermarket",
    "website": "http://www.biocooplasource.fr"
  }
},
{
  "type": "node",
  "id": 5559039961,
  "lat": 42.9712757,
  "lon": 1.6081646,
  "tags": {
    "addr:city": "Foix",
    "addr:housenumber": "4",
    "addr:postcode": "09000",
    "addr:street": "Avenue du Général Leclerc",
    "bulk_purchase": "yes",
    "name": "Biocoop Le Coing Bio",
    "organic": "only",
    "shop": "supermarket",
    "website": "http://biocoop.fr/magasins-bio/Trouver-mon-magasin-Biocoop/Occitanie2/Ariege/BIOCOOP-LE-COING-BIO"
  }
},
{
  "type": "node",
  "id": 5559039962,
  "lat": 45.0507756,
  "lon": 4.8334711,
  "tags": {
    "addr:city": "Tournon-sur-Rhône",
    "addr:housenumber": "175",
    "addr:postcode": "07300",
    "addr:street": "Chemin de Champagne",
    "bulk_purchase": "yes",
    "name": "Biocoop Tain Tournon",
    "organic": "only",
    "shop": "supermarket",
    "website": "http://biocoop.fr/magasins-bio/Trouver-mon-magasin-Biocoop/Auvergne-Rhone-Alpes/Ardeche/BIOCOOP-TAIN-TOURNON"
  }
},
{
  "type": "node",
  "id": 5559039963,
  "lat": 43.7235561,
  "lon": 7.1058732,
  "tags": {
    "addr:city": "Vence",
    "addr:housenumber": "42",
    "addr:postcode": "06140",
    "addr:street": "Avenue Foch",
    "bulk_purchase": "yes",
    "name": "Biocoop Planète Paradis",
    "organic": "only",
    "shop": "supermarket",
    "website": "http://biocoop.fr/magasins-bio/Trouver-mon-magasin-Biocoop/Provence-Alpes-Cote-d-Azur/Alpes-Maritimes/BIOCOOP-PLANETE-PARADIS"
  }
},
{
  "type": "node",
  "id": 5559039964,
  "lat": 43.7029506,
  "lon": 7.2816300,
  "tags": {
    "addr:city": "Nice",
    "addr:housenumber": "2",
    "addr:postcode": "06300",
    "addr:street": "Rue Cais de Pierlas",
    "bulk_purchase": "yes",
    "name": "Biocoop Jardin d'Eden",
    "organic": "only",
    "shop": "supermarket",
    "website": "http://biocoop.fr/magasins-bio/Trouver-mon-magasin-Biocoop/Provence-Alpes-Cote-d-Azur/Alpes-Maritimes/BIOCOOP-JARDIN-D-EDEN"
  }
},
{
  "type": "node",
  "id": 5559749036,
  "lat": 43.1705836,
  "lon": 2.9873298,
  "tags": {
    "addr:city": "Narbonne",
    "addr:housenumber": "3",
    "addr:postcode": "11100",
    "addr:street": "Rue du Rec de Veyret",
    "bulk_purchase": "yes",
    "name": "Biocoop Terrabio sud",
    "organic": "only",
    "shop": "supermarket",
    "website": "http://www.biocoop-narbonne.com"
  }
},
{
  "type": "node",
  "id": 5559749037,
  "lat": 43.0278759,
  "lon": 2.9903154,
  "tags": {
    "addr:city": "Sigean",
    "addr:housenumber": "85",
    "addr:postcode": "11130",
    "addr:street": "Avenue de Port-la-Nouvelle",
    "bulk_purchase": "yes",
    "name": "Biocoop Sigean",
    "organic": "only",
    "shop": "supermarket",
    "website": "http://www.biocoop-sigean.fr/"
  }
},
{
  "type": "node",
  "id": 5559749038,
  "lat": 43.3099075,
  "lon": 1.9713853,
  "tags": {
    "addr:city": "Castelnaudary",
    "addr:housenumber": "114",
    "addr:postcode": "11400",
    "addr:street": "Avenue Monseigneur de Langle",
    "bulk_purchase": "yes",
    "name": "Biocoop Pai S'en Bio",
    "organic": "only",
    "shop": "supermarket",
    "website": "http://paysenbio-castelnaudary.biocoop.net/"
  }
},
{
  "type": "node",
  "id": 5559749039,
  "lat": 43.1889543,
  "lon": 2.7540347,
  "tags": {
    "addr:city": "Lézignan-Corbières",
    "addr:housenumber": "3",
    "addr:postcode": "11200",
    "addr:street": "Rue de l'Alaric",
    "bulk_purchase": "yes",
    "name": "Biocoop Lezignan",
    "organic": "only",
    "shop": "supermarket",
    "website": "https://www.biocoop.fr/magasins-bio/Trouver-mon-magasin-Biocoop/Occitanie2/Aude/BIOCOOP-LEZIGNAN"
  }
},
{
  "type": "node",
  "id": 5559749040,
  "lat": 43.0504910,
  "lon": 2.2181700,
  "tags": {
    "addr:city": "Limoux",
    "addr:housenumber": "29",
    "addr:postcode": "11300",
    "addr:street": "Avenue Fabre d'Églantine",
    "bulk_purchase": "yes",
    "name": "Biocoop association Floreal",
    "organic": "only",
    "shop": "supermarket",
    "website": "http://floreal.limoux.free.fr/"
  }
},
{
  "type": "node",
  "id": 5559775812,
  "lat": 44.0830089,
  "lon": 3.0443719,
  "tags": {
    "addr:city": "Creissels",
    "addr:postcode": "12100",
    "addr:street": "Avenue Jean Monnet",
    "bulk_purchase": "yes",
    "name": "Biocoop des Cascades",
    "organic": "only",
    "shop": "supermarket",
    "website": "https://www.biocoop.fr/magasins-bio/Trouver-mon-magasin-Biocoop/Occitanie2/Aveyron/BIOCOOP-DES-CASCADES"
  }
},
{
  "type": "node",
  "id": 5561671911,
  "lat": 43.5647738,
  "lon": 5.4037800,
  "tags": {
    "addr:city": "Aix-en-Provence",
    "addr:housenumber": "20",
    "addr:postcode": "13090",
    "addr:street": "Chemin des Gervais",
    "bulk_purchase": "yes",
    "name": "Biocoop La Coumpagnie Puyricard",
    "organic": "only",
    "shop": "supermarket",
    "website": "http://biocoop.fr/magasins-bio/Trouver-mon-magasin-Biocoop/Provence-Alpes-Cote-d-Azur/Bouches-du-Rhone/BIOCOOP-LA-COUMPAGNIE-PUYRICARD"
  }
},
{
  "type": "node",
  "id": 5564113728,
  "lat": 49.1503330,
  "lon": 0.2529200,
  "tags": {
    "addr:city": "Lisieux",
    "addr:housenumber": "230",
    "addr:postcode": "14100",
    "addr:street": "Rue Alexandre Fleming",
    "bulk_purchase": "yes",
    "name": "Biocoop Lisieux",
    "organic": "only",
    "shop": "supermarket",
    "website": "http://biocooplisieux.biocoop.net"
  }
},
{
  "type": "node",
  "id": 5564164513,
  "lat": 43.3317167,
  "lon": -0.3342960,
  "tags": {
    "addr:city": "Pau",
    "addr:housenumber": "210",
    "addr:postcode": "64000",
    "addr:street": "Avenue de Buros",
    "bulk_purchase": "yes",
    "description": "Vente de lait à la ferme en vrac (apporter sa bouteille)",
    "name": "Pau de vache",
    "opening_hours": "Tu, Sa 18:00-19:00",
    "phone": "+33608615837",
    "shop": "agrarian"
  }
},
{
  "type": "node",
  "id": 5564165132,
  "lat": 43.2804925,
  "lon": -0.2683068,
  "tags": {
    "addr:city": "Ousse",
    "addr:housenumber": "4 bis",
    "addr:postcode": "64320",
    "addr:street": "Chemin Cambus",
    "bulk_purchase": "only",
    "description": "Groupe local zéro déchet (Zero waste France), promotion du mode de vie zéro déchet ",
    "email": "contactazd64@gmail.com",
    "name": "Association Avenir Zéro Déchet Pau",
    "office": "association"
  }
},
{
  "type": "node",
  "id": 5565191447,
  "lat": 48.1084831,
  "lon": -1.6788230,
  "tags": {
    "addr:city": "Rennes",
    "addr:housenumber": "10",
    "addr:postcode": "35000",
    "addr:street": "Rue Vasselot",
    "brand": "Biocoop",
    "brand:wikipedia": "fr:Biocoop",
    "bulk_purchase": "yes",
    "loc_name": "Scarabée Biocoop Vasselot",
    "name": "Biocoop Scarabée Vasselot",
    "opening_hours": "Mo-Sa 09:30-19:30",
    "operator": "Société coopérative d'alimentation rennaise biologique et écologique",
    "organic": "only",
    "payment:cash": "yes",
    "payment:credit_cards": "yes",
    "payment:debit_cards": "yes",
    "phone": "+33 2 90 22 69 79",
    "shop": "supermarket",
    "website": "http://www.scarabee-biocoop.fr",
    "wheelchair": "limited"
  }
},
{
  "type": "node",
  "id": 5573379328,
  "lat": 45.1461905,
  "lon": 1.4732179,
  "tags": {
    "addr:city": "Brive-la-Gaillarde",
    "addr:postcode": "19100",
    "addr:street": "Rue Robert Margerit",
    "bulk_purchase": "yes",
    "name": "Biocoop Brive la Roche",
    "organic": "only",
    "shop": "supermarket",
    "website": "http://biocoop.fr/magasins-bio/Trouver-mon-magasin-Biocoop/Nouvelle-Aquitaine2/Correze/BIOCOOP-BRIVE-LA-ROCHE"
  }
},
{
  "type": "node",
  "id": 5573379329,
  "lat": 46.2997157,
  "lon": -0.9902199,
  "tags": {
    "addr:city": "Marans",
    "addr:housenumber": "130",
    "addr:postcode": "17230",
    "addr:street": "Route de la Rochelle",
    "bulk_purchase": "yes",
    "name": "Biocoop Marans",
    "organic": "only",
    "shop": "supermarket",
    "website": "http://marans.biocoop.net"
  }
},
{
  "type": "node",
  "id": 5575855555,
  "lat": 47.7501638,
  "lon": -3.1843636,
  "tags": {
    "addr:city": "Nostang",
    "addr:housenumber": "19",
    "addr:postcode": "56690",
    "addr:street": "Rue Paul Le Roux",
    "bulk_purchase": "yes",
    "name": "Biocoop Ti Stal Lostenk",
    "organic": "only",
    "shop": "supermarket",
    "website": "http://biocoop.fr/magasins-bio/Trouver-mon-magasin-Biocoop/Bretagne/Morbihan/BIOCOOP-TI-STAL-LOSTENK"
  }
},
{
  "type": "way",
  "id": 36940774,
  "center": {
    "lat": 45.9061780,
    "lon": 6.1242490
  },
  "nodes": [
    429567100,
    429567101,
    429567102,
    429567103,
    429567104,
    429567105,
    429567107,
    429567100
  ],
  "tags": {
    "addr:housenumber": "4",
    "addr:street": "Rue Joseph Dessaix",
    "building": "yes",
    "bulk_purchase": "only",
    "name": "Day by day",
    "shop": "convenience",
    "source": "cadastre-dgi-fr source : Direction Générale des Impôts - Cadastre;mise à jour : 2008"
  }
},
{
  "type": "way",
  "id": 46991383,
  "center": {
    "lat": 43.8875472,
    "lon": -0.4882868
  },
  "nodes": [
    599595154,
    599595160,
    599595155,
    599595156,
    599595157,
    599595158,
    599595159,
    599595154
  ],
  "tags": {
    "addr:city": "Mont-de-Marsan",
    "addr:housenumber": "337",
    "addr:postcode": "40000",
    "addr:street": "Boulevard Jean Larrieu",
    "building": "yes",
    "bulk_purchase": "yes",
    "name": "Biocoop - Nature et santé",
    "opening_hours": "Mo 14:30-19:30; Tu-Th 09:30-13:00,14:30-19:30; Fr,Sa 09:30-19:30",
    "phone": "+335 58 46 24 25",
    "shop": "supermarket",
    "source": "cadastre-dgi-fr source : Direction Générale des Impôts - Cadastre. Mise à jour : 2009",
    "website": "http://www.biocoop-natureetsante.com/",
    "wheelchair": "yes"
  }
},
{
  "type": "way",
  "id": 49945792,
  "center": {
    "lat": 48.0940414,
    "lon": -1.6902157
  },
  "nodes": [
    4215933534,
    942408118,
    4212645098,
    4212645099,
    942412074,
    5109382401,
    5109382404,
    634647711,
    634647709,
    942413817,
    634647712,
    4215933534
  ],
  "tags": {
    "addr:city": "Rennes",
    "addr:housenumber": "261",
    "addr:postcode": "35000",
    "addr:street": "Rue de Nantes",
    "building": "yes",
    "bulk_purchase": "yes",
    "delivery": "no",
    "drive_through": "no",
    "name": "Azur Bio",
    "opening_hours": "Mo-Sa 09:30-19:30",
    "operator": "Alize Bio",
    "organic": "only",
    "payment:cash": "yes",
    "payment:checks": "yes",
    "payment:credit_cards": "yes",
    "payment:debit_cards": "yes",
    "phone": "+33 2 99 31 25 25",
    "shop": "supermarket",
    "source": "cadastre-dgi-fr source : Direction Générale des Impôts - Cadastre;mise à jour : 2010",
    "source:addr": "Rennes Métropole",
    "source:addr:housenumber:ref": "80770",
    "source:addr:version": "2016-04-01",
    "website": "http://www.azurbio.fr",
    "wheelchair": "yes"
  }
},
{
  "type": "way",
  "id": 62546439,
  "center": {
    "lat": 45.9374119,
    "lon": 6.0755078
  },
  "nodes": [
    780447713,
    780421399,
    780452375,
    780443955,
    780454535,
    780428284,
    780443463,
    780432427,
    780450494,
    780437327,
    780428423,
    780444661,
    780414035,
    780414609,
    780442595,
    780423919,
    780434352,
    780433101,
    780416227,
    780443559,
    780421555,
    780414460,
    780414006,
    780421619,
    780423963,
    780450259,
    780451632,
    780447896,
    780454618,
    780425279,
    780415552,
    780455668,
    780447713
  ],
  "tags": {
    "building": "yes",
    "bulk_purchase": "yes",
    "name": "Auchan",
    "operator": "Auchan",
    "organic": "yes",
    "shop": "supermarket",
    "source": "cadastre-dgi-fr source : Direction Générale des Impôts - Cadastre. Mise à jour : 2010",
    "website": "http://www.auchan.fr/",
    "wheelchair": "yes"
  }
},
{
  "type": "way",
  "id": 63633354,
  "center": {
    "lat": 45.1758178,
    "lon": 1.5805690
  },
  "nodes": [
    787269092,
    4534054249,
    4534054252,
    787273650,
    787248972,
    4534054250,
    787237514,
    787269092
  ],
  "tags": {
    "addr:city": "Malemort-sur-Corrèze",
    "addr:housenumber": "57",
    "addr:postcode": "19360",
    "addr:street": "Avenue de la Libération",
    "brand": "Biocoop",
    "brand:wikidata": "Q2904039",
    "brand:wikipedia": "fr:Biocoop",
    "building": "yes",
    "bulk_purchase": "yes",
    "name": "Biocoop",
    "operator": "Kryzemil",
    "organic": "only",
    "phone": "+33 5 55 87 42 11",
    "shop": "supermarket",
    "website": "http://www.biocoop-malemort.fr"
  }
},
{
  "type": "way",
  "id": 63902004,
  "center": {
    "lat": 48.1388541,
    "lon": -1.6909369
  },
  "nodes": [
    789026048,
    789035999,
    788999237,
    788984167,
    789008035,
    789014661,
    789058549,
    788994318,
    789018361,
    789055731,
    789026048
  ],
  "tags": {
    "addr:city": "Saint-Grégoire",
    "addr:housenumber": "8",
    "addr:postcode": "35760",
    "addr:street": "Allée de la Cerisaie",
    "brand:wikipedia": "fr:Biocoop",
    "building": "yes",
    "bulk_purchase": "yes",
    "name": "Biocoop Scarabée St-Grégoire",
    "opening_hours": "Mo-Fr 09:30-19:30; Sa 09:30-19:00",
    "operator": "Société coopérative d'alimentation rennaise biologique et écologique",
    "organic": "only",
    "phone": "+33 2 99 87 14 14",
    "shop": "supermarket",
    "source": "cadastre-dgi-fr source : Direction Générale des Impôts - Cadastre;mise à jour : 2010",
    "website": "http://www.scarabee-biocoop.fr",
    "wheelchair": "yes"
  }
},
{
  "type": "way",
  "id": 64597926,
  "center": {
    "lat": 47.0766796,
    "lon": 2.3842162
  },
  "nodes": [
    793700538,
    793620515,
    793620847,
    793634509,
    793633014,
    793688446,
    793669966,
    793641516,
    793704738,
    793648705,
    793700538
  ],
  "tags": {
    "addr:city": "Bourges",
    "addr:housenumber": "121",
    "addr:postcode": "18000",
    "addr:street": "Boulevard de l'Avenir",
    "building": "yes",
    "bulk_purchase": "yes",
    "name": "Au Bourgeon vert",
    "opening_hours": "Mo-Sa 09:30-19:30",
    "organic": "only",
    "phone": "+33248211901",
    "shop": "supermarket",
    "source": "cadastre-dgi-fr source : Direction Générale des Impôts - Cadastre. Mise à jour : 2010",
    "website": "http://www.biocoopaubourgeonvert.fr/"
  }
},
{
  "type": "way",
  "id": 65504482,
  "center": {
    "lat": 47.1886989,
    "lon": -1.4920779
  },
  "nodes": [
    799410885,
    799428989,
    799407802,
    799429737,
    799419789,
    799400848,
    799421912,
    799427917,
    799410885
  ],
  "tags": {
    "addr:city": "Saint-Sebastien-sur-Loire",
    "addr:postcode": "44230",
    "addr:street": "Rue Louis Blanc",
    "building": "yes",
    "bulk_purchase": "yes",
    "name": "Biocoop",
    "opening_hours": "Mo-Fr 09:30-19:30; Sa 09:30-19:00; Su off",
    "organic": "only",
    "shop": "supermarket",
    "source": "cadastre-dgi-fr source : Direction Générale des Impôts - Cadastre. Mise à jour : 2010",
    "website": "https://www.biocoop.fr/magasins-bio/Trouver-mon-magasin-Biocoop/Pays-de-la-Loire/Loire-Atlantique/BIOCOOP-NANTES-SUD"
  }
},
{
  "type": "way",
  "id": 65522853,
  "center": {
    "lat": 45.6901946,
    "lon": -0.3180042
  },
  "nodes": [
    793016813,
    792992500,
    793002297,
    792908329,
    793059170,
    792988388,
    793064046,
    792952428,
    793008947,
    793008642,
    792998124,
    793000053,
    792988319,
    793016813
  ],
  "tags": {
    "addr:city": "Cognac",
    "addr:housenumber": "141",
    "addr:postcode": "16100",
    "addr:street": "Avenue Victor Hugo",
    "building": "yes",
    "bulk_purchase": "yes",
    "name": "Biocoop Pays de Cognac",
    "organic": "only",
    "shop": "supermarket",
    "source": "cadastre-dgi-fr source : Direction Générale des Impôts - Cadastre. Mise à jour : 2010",
    "website": "http://www.biocoop-cognac.com"
  }
},
{
  "type": "way",
  "id": 65779195,
  "center": {
    "lat": 45.6787788,
    "lon": -0.3287141
  },
  "nodes": [
    801275056,
    801257925,
    801246177,
    801221176,
    801251545,
    801250094,
    801164968,
    801275056
  ],
  "tags": {
    "building": "yes",
    "bulk_purchase": "yes",
    "name": "Biocoop Pays de Cognac",
    "organic": "only",
    "shop": "convenience",
    "source": "cadastre-dgi-fr source : Direction Générale des Impôts - Cadastre. Mise à jour : 2010"
  }
},
{
  "type": "way",
  "id": 66310715,
  "center": {
    "lat": 45.2441108,
    "lon": 4.6738370
  },