{
  "elements": [
	{
	  "name": "ArchiVrac",
	  "website": "http://www.archivrac.com/",
	  "bulk_purchase": "only",
	  "organic": "yes",
	  "validated_with_owner": false,
	  "places": []
	},
	{
	  "name": "Au Poids Chiche",
	  "website": "https://www.facebook.com/aupoidschiche",
	  "bulk_purchase": "only",
	  "organic": "yes",
	  "validated_with_owner": false,
	  "places": []
	},
	{
	  "name": "Aux Merveilles d’Alice",
	  "website": "https://facebook.com/aliceetsesmerveilles/",
	  "bulk_purchase": "only",
	  "organic": "yes",
	  "validated_with_owner": false,
	  "places": []
	},
	{
	  "name": "La Main dans l'Sac",
	  "website": "http://lamaindanslsac.fr/",
	  "bulk_purchase": "only",
	  "organic": "yes",
	  "validated_with_owner": false,
	  "places": []
	},
  	{
	  "name": "La p'tite roulotte",
	  "website": "http://www.laptiteroulotte.com/",
	  "bulk_purchase": "only",
	  "organic": "yes",
	  "validated_with_owner": false,
	  "places": [
	  	{
	  		"lat": 44.84111,
	  		"lon": 0.21619,
	    	"place_name": "Marché de Sainte-Foy-la-Grande, Place du marché"
		},
		{
	  		"lat": 44.91485,
	  		"lon": -0.24491,
	    	"place_name": "Marché de Libourne, Place Abel Surchamp"
		},
		{
	  		"lat": 44.8534,
	  		"lon": -0.04352,
	    	"place_name": "Marché de Castillon La Bataille, Place Boyer Andrivet"
		},
		{
	  		"lat": 44.8404653, 
	  		"lon": 0.1217308,
	    	"place_name": "Marché de producteurs, Ferme des Gardes - Saint-Antoine-de-Breuilh"
		}
	  ]
	},
	{
	  "name": "La Réserve Bio",
	  "website": "https://reservebio.fr/",
	  "bulk_purchase": "only",
	  "organic": "yes",
	  "validated_with_owner": false,
	  "places": []
	},
	{
	  "name": "La Vrac en Folie",
	  "website": "https://www.facebook.com/lavracenfolie/",
	  "bulk_purchase": "only",
	  "organic": "yes",
	  "validated_with_owner": false,
	  "places": []
	},
	{
	  "name": "La Vrac Mobile",
	  "website": "https://www.vrac-mobile.com/",
	  "bulk_purchase": "only",
	  "organic": "yes",
	  "validated_with_owner": false,
	  "places": [
	  	{
	  		"lat": 43.4838, 
	  		"lon": -1.51186,
	  		"place_name": "Marché de Quintaou - Anglet"
	  	},
	  	{
	  		"lat": 43.36816,
	  		"lon": -1.78145, 
	  		"place_name": "Water Sports Center - Quai de Floride, Hendaye"
	  	},
	  	{
	  		"lat": 43.67087,
	  		"lon": -1.39,
	  		"place_name": "Parking Billabong - 100 av. Sabotiers, Soorts-Hossegor"
	  	},
	  	{
	  		"lat": 43.66411,
	  		"lon": -1.39487,
	  		"place_name": "Marché de Pays de Soorts - 19 av. du centre, Soorts-Hossegor"
	  	}
	  ]
	},
	{
	  "name": "Le BoCal'Mion",
	  "website": "https://www.facebook.com/lebocalmion",
	  "bulk_purchase": "only",
	  "organic": "yes",
	  "validated_with_owner": false,
	  "places": []
	},
	{
	  "name": "On Part en Vrac",
	  "website": "https://www.onpartenvrac.com/",
	  "bulk_purchase": "only",
	  "organic": "yes",
	  "validated_with_owner": false,
	  "places": []
	},
	{
	  "name": "Tootopoids",
	  "website": "https://tootopoids.com/",
	  "bulk_purchase": "only",
	  "organic": "yes",
	  "validated_with_owner": false,
	  "places": []
	},
	{
	  "name": "Tour'N Vrac",
	  "website": "https://www.facebook.com/tournvrac",
	  "bulk_purchase": "only",
	  "organic": "yes",
	  "validated_with_owner": false,
	  "places": []
	},
  	{
	  "name": "Un p'tit grain de...!",
	  "website": "https://www.unptitgrainde.com/",
	  "bulk_purchase": "only",
	  "organic": "only",
	  "validated_with_owner": false,
	  "places": []
	},
	{
	  "name": "V'la le Vrac",
	  "website": "https://www.facebook.com/VLALEVRAC",
	  "bulk_purchase": "only",
	  "organic": "yes",
	  "validated_with_owner": false,
	  "places": []
	},
	{
	  "name": "Vrac en Vadrouille",
	  "website": "https://www.facebook.com/VracEnVadrouille",
	  "bulk_purchase": "only",
	  "organic": "yes",
	  "validated_with_owner": false,
	  "places": []
	},
	{
	  "name": "Vrac'n Roule'",
	  "website": "https://www.facebook.com/vracnroule/",
	  "bulk_purchase": "only",
	  "organic": "yes",
	  "validated_with_owner": false,
	  "places": [
	  	{
	  		"lat": 47.14476,
	  		"lon": -1.69022,
	  		"place_name": "Devant la salle Jacqueline Auriol - Bouaye"
	  	},
	  	{
	  		"lat": 47.18811,
	  		"lon": -1.68345,
	  		"place_name": "Marché de la Montagne - place Similien Guérin"
	  	},
	  	{
	  		"lat": 47.14189,
	  		"lon": -1.68879,
	  		"place_name": "Marché de Bouaye - place du Marché"
	  	},
	  	{
	  		"lat": 47.19234,
	  		"lon": -1.72550,
	  		"place_name": "Devant la salle des Genets - Saint-Jean-de-Boiseau"
	  	},
	  	{
	  		"lat": 47.21475,
	  		"lon": -1.90364,
	  		"place_name": "Ferme de Sergonne - Frossay"
	  	},
	  	{
	  		"lat": 47.08060,
	  		"lon": -2.03632,
	  		"place_name": "Marché de La Bernerie - bd. Chaussé du Pays de Retz"
	  	},
	  	{
	  		"lat": 47.06912,
	  		"lon": -1.91057,
	  		"place_name": "Ferme des Clos Mouillés - Bourgneuf"
	  	},
	  	{
	  		"lat": 47.20170,
	  		"lon": -1.75461,
	  		"place_name": "Marché du Pellerin - rue du docteur Sourdille"
	  	}
	  ]
	}
  ]
}
